{"type":"FeatureCollection", "features": [
{"type":"Feature","geometry":{"type":"Point","coordinates":[-101.64521,18.66303]},"properties":{"ID":1,"NOMBRE":"VIRGEN DE GUADALUPE","CONTROL":157,"Geometry1_":"1=Xi6Zbm8.r>","GMRotation":-0.000022}},
{"type":"Feature","geometry":{"type":"Point","coordinates":[-102.28442,19.98729]},"properties":{"ID":2,"NOMBRE":"SAGRADO CORAZON DE JESUS","CONTROL":158,"Geometry1_":"1=X<WUllgnGp","GMRotation":-0.000021}},
{"type":"Feature","geometry":{"type":"Point","coordinates":[-102.28932,19.98713]},"properties":{"ID":3,"NOMBRE":"LOS DOLORES","CONTROL":159,"Geometry1_":"1=X<WSyOUYZ-","GMRotation":-0.000021}},
{"type":"Feature","geometry":{"type":"Point","coordinates":[-102.28421,19.98501]},"properties":{"ID":4,"NOMBRE":"SAN FRANCISCO","CONTROL":160,"Geometry1_":"1=X<WUm)GBzf","GMRotation":-0.00002}},
{"type":"Feature","geometry":{"type":"Point","coordinates":[-102.28542,19.98373]},"properties":{"ID":5,"NOMBRE":"CATEDRAL","CONTROL":161,"Geometry1_":"1=X<WSz9h;y>","GMRotation":-0.00002}},
{"type":"Feature","geometry":{"type":"Point","coordinates":[-102.28209,19.98375]},"properties":{"ID":6,"NOMBRE":"STRIO A NUESTRA SEÑORA DE GUADALUPE","CONTROL":162,"Geometry1_":"1=X<WUm?gMK>","GMRotation":-0.000021}},
{"type":"Feature","geometry":{"type":"Point","coordinates":[-102.28984,19.98092]},"properties":{"ID":7,"NOMBRE":"LA MEDALLITA MILAGROSA","CONTROL":163,"Geometry1_":"1=X<WSzJ;?K-","GMRotation":-0.000021}},
{"type":"Feature","geometry":{"type":"Point","coordinates":[-102.29556,19.97813]},"properties":{"ID":8,"NOMBRE":"JESUCRISTO","CONTROL":164,"Geometry1_":"1=X<WSZYb?Yp","GMRotation":-0.00002}},
{"type":"Feature","geometry":{"type":"Point","coordinates":[-102.28408,19.9761]},"properties":{"ID":9,"NOMBRE":"TEMPLO DE JESUCRISTO","CONTROL":165,"Geometry1_":"1=X<WY))?2mp","GMRotation":-0.000021}},
{"type":"Feature","geometry":{"type":"Point","coordinates":[-102.28251,19.97629]},"properties":{"ID":10,"NOMBRE":"NUESTRA SEÑORA DEL ROSARIO","CONTROL":166,"Geometry1_":"1=X<WUmMXnJf","GMRotation":-0.000021}},
{"type":"Feature","geometry":{"type":"Point","coordinates":[-102.27615,19.97786]},"properties":{"ID":11,"NOMBRE":"DE GUADALUPE","CONTROL":167,"Geometry1_":"1=X<WUmyH2Kf","GMRotation":-0.00002}},
{"type":"Feature","geometry":{"type":"Point","coordinates":[-102.27899,19.98113]},"properties":{"ID":12,"NOMBRE":"SAN JUAN","CONTROL":168,"Geometry1_":"1=X<WUmbWn_>","GMRotation":-0.000021}},
{"type":"Feature","geometry":{"type":"Point","coordinates":[-102.27637,19.98684]},"properties":{"ID":13,"NOMBRE":"SAN ISIDRO","CONTROL":169,"Geometry1_":"1=X<WUlYzLMp","GMRotation":-0.00002}},
{"type":"Feature","geometry":{"type":"Point","coordinates":[-102.27149,19.98944]},"properties":{"ID":14,"NOMBRE":"SAN ANTONIO","CONTROL":170,"Geometry1_":"1=X<WULJl@A-","GMRotation":-0.00002}},
{"type":"Feature","geometry":{"type":"Point","coordinates":[-102.27147,19.98367]},"properties":{"ID":15,"NOMBRE":"GUADALUPE","CONTROL":171,"Geometry1_":"1=X<WUM@HbY-","GMRotation":-0.00002}},
{"type":"Feature","geometry":{"type":"Point","coordinates":[-102.27325,19.98255]},"properties":{"ID":16,"NOMBRE":"DE LA AURORA","CONTROL":172,"Geometry1_":"1=X<WUM]r;Op","GMRotation":-0.000021}},
{"type":"Feature","geometry":{"type":"Point","coordinates":[-102.27791,19.97571]},"properties":{"ID":17,"NOMBRE":"DEL ESPIRITU SANTO","CONTROL":173,"Geometry1_":"1=X<WY)2bSw-","GMRotation":-0.00002}},
{"type":"Feature","geometry":{"type":"Point","coordinates":[-102.27845,19.9678]},"properties":{"ID":18,"NOMBRE":"SAN PEDRO Y SAN PABLO","CONTROL":174,"Geometry1_":"1=X<WY)X.H^p","GMRotation":-0.000021}},
{"type":"Feature","geometry":{"type":"Point","coordinates":[-102.32412,20.0091]},"properties":{"ID":19,"NOMBRE":"LA SAGRADA FAMILIA","CONTROL":175,"Geometry1_":"1=X<WSJt*37>","GMRotation":-0.000021}},
{"type":"Feature","geometry":{"type":"Point","coordinates":[-102.32277,20.0085]},"properties":{"ID":20,"NOMBRE":"DE DIOS ISRAELITA","CONTROL":176,"Geometry1_":"1=X<WSJTi8U-","GMRotation":-0.000021}},
{"type":"Feature","geometry":{"type":"Point","coordinates":[-102.31881,20.00855]},"properties":{"ID":21,"NOMBRE":"SANTO MILAGROSO","CONTROL":177,"Geometry1_":"1=X<WSQicZ6p","GMRotation":-0.00002}},
{"type":"Feature","geometry":{"type":"Point","coordinates":[-102.31759,20.01415]},"properties":{"ID":22,"NOMBRE":"VIRGEN DE GUADALUPE","CONTROL":178,"Geometry1_":"1=X<WSbPUhhf","GMRotation":-0.00002}},
{"type":"Feature","geometry":{"type":"Point","coordinates":[-102.02523,20.37824]},"properties":{"ID":23,"NOMBRE":"SAN JOSE","CONTROL":179,"Geometry1_":"1=X<Y*K3E<u-","GMRotation":-0.000019}},
{"type":"Feature","geometry":{"type":"Point","coordinates":[-102.03046,20.37029]},"properties":{"ID":24,"NOMBRE":"MARIA AXILIADORA","CONTROL":180,"Geometry1_":"1=X<Y*O)@RXf","GMRotation":-0.000019}},
{"type":"Feature","geometry":{"type":"Point","coordinates":[-102.02838,20.35571]},"properties":{"ID":25,"NOMBRE":"VIRGEN DE LA MERCED","CONTROL":181,"Geometry1_":"1=X<Y*Pih7\\-","GMRotation":-0.000019}},
{"type":"Feature","geometry":{"type":"Point","coordinates":[-102.30339,19.99768]},"properties":{"ID":26,"NOMBRE":"NUESTRA SEÑORA DE FATIMA","CONTROL":182,"Geometry1_":"1=X<WSSuUzU-","GMRotation":-0.000021}},
{"type":"Feature","geometry":{"type":"Point","coordinates":[-102.31532,20.00391]},"properties":{"ID":27,"NOMBRE":"LA COSECHA FINAL","CONTROL":183,"Geometry1_":"1=X<WSr2cbW>","GMRotation":-0.00002}},
{"type":"Feature","geometry":{"type":"Point","coordinates":[-102.30646,19.99513]},"properties":{"ID":28,"NOMBRE":"SAN JUDAS TADEO","CONTROL":184,"Geometry1_":"1=X<WSSXo\\lf","GMRotation":-0.000021}},
{"type":"Feature","geometry":{"type":"Point","coordinates":[-102.2921,19.99181]},"properties":{"ID":29,"NOMBRE":"LA DIVINA PROVIDENCIA","CONTROL":185,"Geometry1_":"1=X<WSy]O74-","GMRotation":-0.00002}},
{"type":"Feature","geometry":{"type":"Point","coordinates":[-102.28677,19.99152]},"properties":{"ID":30,"NOMBRE":"NUESTRA SEÑORA DEL CARMEN","CONTROL":186,"Geometry1_":"1=X<WSydmoh-","GMRotation":-0.00002}},
{"type":"Feature","geometry":{"type":"Point","coordinates":[-102.28219,19.98965]},"properties":{"ID":31,"NOMBRE":"EL CALVARIO","CONTROL":187,"Geometry1_":"1=X<WUlGTKS>","GMRotation":-0.00002}},
{"type":"Feature","geometry":{"type":"Point","coordinates":[-102.28274,20.00631]},"properties":{"ID":32,"NOMBRE":"LA SAGRADA FAMILIA","CONTROL":188,"Geometry1_":"1=X<WUgL=46f","GMRotation":-0.000021}},
{"type":"Feature","geometry":{"type":"Point","coordinates":[-102.28484,20.00446]},"properties":{"ID":33,"NOMBRE":"JESUCRISTO DE LOS SANTOS DE LOS ULTIMOS DIAS","CONTROL":189,"Geometry1_":"1=X<WSTzXO.-","GMRotation":-0.00002}},
{"type":"Feature","geometry":{"type":"Point","coordinates":[-102.28948,20.00777]},"properties":{"ID":34,"NOMBRE":"SAGRADO CORAZON DE JESUS","CONTROL":190,"Geometry1_":"1=X<WSTK48hf","GMRotation":-0.00002}},
{"type":"Feature","geometry":{"type":"Point","coordinates":[-102.28985,20.01041]},"properties":{"ID":35,"NOMBRE":"NUESTRA SEÑORA DE GUADALUPE","CONTROL":191,"Geometry1_":"1=X<WST+P?+f","GMRotation":-0.00002}},
{"type":"Feature","geometry":{"type":"Point","coordinates":[-102.28939,20.01203]},"properties":{"ID":36,"NOMBRE":"LA LUZ DEL MUNDO","CONTROL":192,"Geometry1_":"1=X<WST@t;np","GMRotation":-0.00002}},
{"type":"Feature","geometry":{"type":"Point","coordinates":[-102.27675,19.99469]},"properties":{"ID":37,"NOMBRE":"SAN RAFAEL ARCANGEL","CONTROL":193,"Geometry1_":"1=X<WUl6AAK-","GMRotation":-0.000021}},
{"type":"Feature","geometry":{"type":"Point","coordinates":[-102.00428,20.34462]},"properties":{"ID":38,"NOMBRE":"NUESTRA SEÑORA DE LA MISERICORDIA","CONTROL":194,"Geometry1_":"1=X<Y.2Y6Gwp","GMRotation":-0.000018}},
{"type":"Feature","geometry":{"type":"Point","coordinates":[-102.27222,19.99963]},"properties":{"ID":39,"NOMBRE":"LA NUEVA LUZ","CONTROL":195,"Geometry1_":"1=X<WUhi;K9-","GMRotation":-0.00002}},
{"type":"Feature","geometry":{"type":"Point","coordinates":[-102.27299,20.00262]},"properties":{"ID":40,"NOMBRE":"SAN FELIPE DE JESUS","CONTROL":196,"Geometry1_":"1=X<WUh.t]6f","GMRotation":-0.00002}},
{"type":"Feature","geometry":{"type":"Point","coordinates":[-102.25898,19.99762]},"properties":{"ID":41,"NOMBRE":"SANTA MARIA GORETI","CONTROL":197,"Geometry1_":"1=X<WUjSWBYp","GMRotation":-0.000021}},
{"type":"Feature","geometry":{"type":"Point","coordinates":[-102.25745,19.99998]},"properties":{"ID":42,"NOMBRE":"MONTE LIBANO","CONTROL":198,"Geometry1_":"1=X<WUjEl]@>","GMRotation":-0.00002}},
{"type":"Feature","geometry":{"type":"Point","coordinates":[-102.25633,20.00138]},"properties":{"ID":43,"NOMBRE":"SANTA ROSA DE LIMA","CONTROL":199,"Geometry1_":"1=X<WUjDTY1f","GMRotation":-0.000021}},
{"type":"Feature","geometry":{"type":"Point","coordinates":[-102.0403,20.35327]},"properties":{"ID":44,"NOMBRE":"SAGRADO CORAZON DE JESUS","CONTROL":200,"Geometry1_":"1=X<Y*olHr8p","GMRotation":-0.000019}},
{"type":"Feature","geometry":{"type":"Point","coordinates":[-102.30294,19.95316]},"properties":{"ID":45,"NOMBRE":"VIRGEN DE GUADALUPE","CONTROL":201,"Geometry1_":"1=X<WWd^jg)f","GMRotation":-0.000021}},
{"type":"Feature","geometry":{"type":"Point","coordinates":[-102.30243,19.96189]},"properties":{"ID":46,"NOMBRE":"SAGRADO CORAZON","CONTROL":202,"Geometry1_":"1=X<WW8g4PZ-","GMRotation":-0.000021}},
{"type":"Feature","geometry":{"type":"Point","coordinates":[-102.02839,20.35367]},"properties":{"ID":47,"NOMBRE":"TERESITA DEL NIÑO JESUS","CONTROL":203,"Geometry1_":"1=X<Y*Pn]Z<p","GMRotation":-0.000019}},
{"type":"Feature","geometry":{"type":"Point","coordinates":[-102.02701,20.35107]},"properties":{"ID":48,"NOMBRE":"ESQUIPULITAS","CONTROL":204,"Geometry1_":"1=X<Y.;;Jj^p","GMRotation":-0.000019}},
{"type":"Feature","geometry":{"type":"Point","coordinates":[-102.29877,19.95456]},"properties":{"ID":49,"NOMBRE":"NUESTRA SEÑORA DE LA LUZ","CONTROL":205,"Geometry1_":"1=X<WWd+ePKf","GMRotation":-0.00002}},
{"type":"Feature","geometry":{"type":"Point","coordinates":[-102.3045,19.99278]},"properties":{"ID":50,"NOMBRE":"SAN MIGUEL","CONTROL":206,"Geometry1_":"1=X<WSW8z=.p","GMRotation":-0.000021}},
{"type":"Feature","geometry":{"type":"Point","coordinates":[-102.30827,19.95926]},"properties":{"ID":51,"NOMBRE":"LA DIVINA PROVIDENCIA","CONTROL":207,"Geometry1_":"1=X<WW4OcX4f","GMRotation":-0.00002}},
{"type":"Feature","geometry":{"type":"Point","coordinates":[-102.30779,19.94897]},"properties":{"ID":52,"NOMBRE":"SAN JOSE","CONTROL":208,"Geometry1_":"1=X<WWBw\\7ep","GMRotation":-0.000101}},
{"type":"Feature","geometry":{"type":"Point","coordinates":[-102.30554,19.95481]},"properties":{"ID":53,"NOMBRE":"SAN AGUSTIN","CONTROL":209,"Geometry1_":"1=X<WWBd\\{@f","GMRotation":-0.000021}},
{"type":"Feature","geometry":{"type":"Point","coordinates":[-102.30583,19.95596]},"properties":{"ID":54,"NOMBRE":"LA ESPERANZA","CONTROL":210,"Geometry1_":"1=X<WWB4d<c>","GMRotation":-0.00002}},
{"type":"Feature","geometry":{"type":"Point","coordinates":[-102.01602,19.99575]},"properties":{"ID":55,"NOMBRE":"VIRGEN DE GUADALUPE","CONTROL":211,"Geometry1_":"1=X<Yhrwe*Of","GMRotation":-0.00002}},
{"type":"Feature","geometry":{"type":"Point","coordinates":[-101.88867,20.06192]},"properties":{"ID":56,"NOMBRE":"VIRGEN DE GUADALUPE","CONTROL":212,"Geometry1_":"1=X<YJnLoPMf","GMRotation":-0.00002}},
{"type":"Feature","geometry":{"type":"Point","coordinates":[-101.97048,19.99397]},"properties":{"ID":57,"NOMBRE":"SAN NICOLAS TOLENTINO","CONTROL":213,"Geometry1_":"1=X<YjL;wAD>","GMRotation":-0.00002}},
{"type":"Feature","geometry":{"type":"Point","coordinates":[-101.93685,20.10423]},"properties":{"ID":58,"NOMBRE":"EL CALVARIO","CONTROL":214,"Geometry1_":"1=X<YiB\\MT{-","GMRotation":-0.000019}},
{"type":"Feature","geometry":{"type":"Point","coordinates":[-101.93365,20.10381]},"properties":{"ID":59,"NOMBRE":"DE LA VIRGEN MARIA","CONTROL":215,"Geometry1_":"1=X<YiB<De)>","GMRotation":-0.000019}},
{"type":"Feature","geometry":{"type":"Point","coordinates":[-102.03485,20.34248]},"properties":{"ID":60,"NOMBRE":"SAN PABLO","CONTROL":216,"Geometry1_":"1=X<Y.:wX8gf","GMRotation":-0.000019}},
{"type":"Feature","geometry":{"type":"Point","coordinates":[-103.50419,18.59853]},"properties":{"ID":61,"NOMBRE":"SAN MIGUEL ARCANGEL","CONTROL":217,"Geometry1_":"1=Xi@2dl1o^>","GMRotation":-0.000023}},
{"type":"Feature","geometry":{"type":"Point","coordinates":[-103.50161,18.59863]},"properties":{"ID":62,"NOMBRE":"CRISTIANA JESUCRISTO ROCA DE SALVACION","CONTROL":218,"Geometry1_":"1=Xi@2dn2d8p","GMRotation":-0.000023}},
{"type":"Feature","geometry":{"type":"Point","coordinates":[-102.03115,20.34321]},"properties":{"ID":63,"NOMBRE":"DEL CARMEN","CONTROL":219,"Geometry1_":"1=X<Y.:zD,lf","GMRotation":-0.000019}},
{"type":"Feature","geometry":{"type":"Point","coordinates":[-102.02236,20.34086]},"properties":{"ID":64,"NOMBRE":"SEÑOR DE LA PIEDAD","CONTROL":220,"Geometry1_":"1=X<Y.@9{DBp","GMRotation":-0.000019}},
{"type":"Feature","geometry":{"type":"Point","coordinates":[-102.021,20.33671]},"properties":{"ID":65,"NOMBRE":"NUESTRA SEÑORA DE GUADALUPE","CONTROL":221,"Geometry1_":"1=X<Y.3gvGW-","GMRotation":-0.000019}},
{"type":"Feature","geometry":{"type":"Point","coordinates":[-102.02462,20.33593]},"properties":{"ID":66,"NOMBRE":"SAN ANDRES","CONTROL":222,"Geometry1_":"1=X<Y.@S=w,>","GMRotation":-0.000019}},
{"type":"Feature","geometry":{"type":"Point","coordinates":[-102.01689,20.32859]},"properties":{"ID":67,"NOMBRE":"SEÑOR DE LAS LUCECITAS","CONTROL":223,"Geometry1_":"1=X<Y.AbHo\\-","GMRotation":-0.000019}},
{"type":"Feature","geometry":{"type":"Point","coordinates":[-102.05606,19.97198]},"properties":{"ID":68,"NOMBRE":"SAN MIGUEL","CONTROL":224,"Geometry1_":"1=X<YL)<S.h-","GMRotation":-0.00002}},
{"type":"Feature","geometry":{"type":"Point","coordinates":[-102.0188,20.33865]},"properties":{"ID":69,"NOMBRE":"SAN FRANCISCO","CONTROL":225,"Geometry1_":"1=X<Y.3<@]v-","GMRotation":-0.000019}},
{"type":"Feature","geometry":{"type":"Point","coordinates":[-102.01983,20.32341]},"properties":{"ID":70,"NOMBRE":"VIRGEN DE SAN JUAN","CONTROL":226,"Geometry1_":"1=X<Y.b*3.L>","GMRotation":-0.000019}},
{"type":"Feature","geometry":{"type":"Point","coordinates":[-102.02696,20.33613]},"properties":{"ID":71,"NOMBRE":"SANTA JULIANA","CONTROL":227,"Geometry1_":"1=X<Y.@K+QB-","GMRotation":-0.000019}},
{"type":"Feature","geometry":{"type":"Point","coordinates":[-102.03739,20.33877]},"properties":{"ID":72,"NOMBRE":"VIRGEN DE LA SALUD","CONTROL":228,"Geometry1_":"1=X<Y.?<1J9f","GMRotation":-0.000019}},
{"type":"Feature","geometry":{"type":"Point","coordinates":[-102.3695,19.11181]},"properties":{"ID":73,"NOMBRE":"DE TODOS LOS SANTOS","CONTROL":229,"Geometry1_":"1=Xi23t7rGdp","GMRotation":-0.000023}},
{"type":"Feature","geometry":{"type":"Point","coordinates":[-102.36427,19.11214]},"properties":{"ID":74,"NOMBRE":"TEMPLO EVANGELICO BETHEL","CONTROL":230,"Geometry1_":"1=Xi23T;EDhf","GMRotation":-0.000023}},
{"type":"Feature","geometry":{"type":"Point","coordinates":[-102.36188,19.1072]},"properties":{"ID":75,"NOMBRE":"LA SAGRADA FAMILIA","CONTROL":232,"Geometry1_":"1=Xi23TtgMSp","GMRotation":-0.000023}},
{"type":"Feature","geometry":{"type":"Point","coordinates":[-102.35841,19.10956]},"properties":{"ID":76,"NOMBRE":"DE CRISTO","CONTROL":233,"Geometry1_":"1=Xi24g\\TZEp","GMRotation":-0.000023}},
{"type":"Feature","geometry":{"type":"Point","coordinates":[-102.35449,19.116]},"properties":{"ID":77,"NOMBRE":"CRISTO REY","CONTROL":234,"Geometry1_":"1=Xi24^r:wW>","GMRotation":-0.000024}},
{"type":"Feature","geometry":{"type":"Point","coordinates":[-102.35712,19.10833]},"properties":{"ID":78,"NOMBRE":"INMACULADA","CONTROL":235,"Geometry1_":"1=Xi24g<HAEf","GMRotation":-0.000023}},
{"type":"Feature","geometry":{"type":"Point","coordinates":[-102.35473,19.10275]},"properties":{"ID":79,"NOMBRE":"LA DIVINA PROVIDENCIA","CONTROL":236,"Geometry1_":"1=Xi24H1^De-","GMRotation":-0.000023}},
{"type":"Feature","geometry":{"type":"Point","coordinates":[-102.35619,19.09041]},"properties":{"ID":80,"NOMBRE":"NUESTRA SEÑORA DE LOURDES","CONTROL":237,"Geometry1_":"1=Xi24l{ZES>","GMRotation":-0.000024}},
{"type":"Feature","geometry":{"type":"Point","coordinates":[-102.36003,19.09799]},"properties":{"ID":81,"NOMBRE":"NUESTRA SEÑORA DEL CARMEN","CONTROL":238,"Geometry1_":"1=Xi23uTbY@-","GMRotation":-0.000023}},
{"type":"Feature","geometry":{"type":"Point","coordinates":[-102.36444,19.09458]},"properties":{"ID":82,"NOMBRE":"DEL PERPETUO SOCORRO","CONTROL":239,"Geometry1_":"1=Xi23uPe6]-","GMRotation":-0.000024}},
{"type":"Feature","geometry":{"type":"Point","coordinates":[-102.36645,19.09781]},"properties":{"ID":83,"NOMBRE":"SANTA CECILIA","CONTROL":240,"Geometry1_":"1=Xi23uih);p","GMRotation":-0.000023}},
{"type":"Feature","geometry":{"type":"Point","coordinates":[-102.36819,19.10081]},"properties":{"ID":84,"NOMBRE":"SAN JUAN BOSCO","CONTROL":241,"Geometry1_":"1=Xi23u\\2G]-","GMRotation":-0.000023}},
{"type":"Feature","geometry":{"type":"Point","coordinates":[-102.34779,19.10698]},"properties":{"ID":85,"NOMBRE":"CASA SAN PABLO","CONTROL":242,"Geometry1_":"1=Xi24Gil_Y-","GMRotation":-0.000023}},
{"type":"Feature","geometry":{"type":"Point","coordinates":[-102.34308,19.10261]},"properties":{"ID":86,"NOMBRE":"EVANGELICA LA LUZ DEL MUNDO","CONTROL":243,"Geometry1_":"1=Xi24h6g{e>","GMRotation":-0.000023}},
{"type":"Feature","geometry":{"type":"Point","coordinates":[-102.34154,19.09801]},"properties":{"ID":87,"NOMBRE":"NIÑO JESUS DE LA SALUD","CONTROL":244,"Geometry1_":"1=Xi24hT<Udp","GMRotation":-0.000023}},
{"type":"Feature","geometry":{"type":"Point","coordinates":[-102.35061,19.09458]},"properties":{"ID":88,"NOMBRE":"PARROQUIA DE FATIMA","CONTROL":245,"Geometry1_":"1=Xi24Hzc).-","GMRotation":-0.000023}},
{"type":"Feature","geometry":{"type":"Point","coordinates":[-102.34618,19.09161]},"properties":{"ID":89,"NOMBRE":"SAGRADO CORAZON DE JESUS","CONTROL":246,"Geometry1_":"1=Xi24L@P]d-","GMRotation":-0.000023}},
{"type":"Feature","geometry":{"type":"Point","coordinates":[-102.33823,19.09521]},"properties":{"ID":90,"NOMBRE":"JUAN DIEGO","CONTROL":247,"Geometry1_":"1=Xi24jnLO;p","GMRotation":-0.000023}},
{"type":"Feature","geometry":{"type":"Point","coordinates":[-102.33147,19.09802]},"properties":{"ID":91,"NOMBRE":"SANTA CLARA","CONTROL":248,"Geometry1_":"1=Xi24jTEQjf","GMRotation":-0.000024}},
{"type":"Feature","geometry":{"type":"Point","coordinates":[-102.3423,19.0912]},"properties":{"ID":92,"NOMBRE":"VIRGEN DE GUADALUPE LA ERMITA","CONTROL":249,"Geometry1_":"1=Xi24LdB2<>","GMRotation":-0.000023}},
{"type":"Feature","geometry":{"type":"Point","coordinates":[-102.36143,19.09007]},"properties":{"ID":93,"NOMBRE":"SAN FRANCISCO DE ASIS","CONTROL":250,"Geometry1_":"1=Xi23ye@LDp","GMRotation":-0.000029}},
{"type":"Feature","geometry":{"type":"Point","coordinates":[-102.36474,19.08676]},"properties":{"ID":94,"NOMBRE":"EVANGELICA CRISTIANA ESPIRITUAL","CONTROL":251,"Geometry1_":"1=Xi23yO1Bj-","GMRotation":-0.000023}},
{"type":"Feature","geometry":{"type":"Point","coordinates":[-102.36011,19.08656]},"properties":{"ID":95,"NOMBRE":"SAN JOSE OBRERO","CONTROL":252,"Geometry1_":"1=Xi23yy3htf","GMRotation":-0.000023}},
{"type":"Feature","geometry":{"type":"Point","coordinates":[-102.3588,19.0875]},"properties":{"ID":96,"NOMBRE":"EVANGELICA LA LUZ DEL MUNDO","CONTROL":253,"Geometry1_":"1=Xi24lHc]?>","GMRotation":-0.000024}},
{"type":"Feature","geometry":{"type":"Point","coordinates":[-102.36098,19.07889]},"properties":{"ID":97,"NOMBRE":"SAN MIGUEL ARCANGEL","CONTROL":254,"Geometry1_":"1=Xi23ztY:;f","GMRotation":-0.000024}},
{"type":"Feature","geometry":{"type":"Point","coordinates":[-102.35455,19.08645]},"properties":{"ID":98,"NOMBRE":"LA SANTA CATEDRAL DE NUESTRA SRA DE LA ASUNCION","CONTROL":255,"Geometry1_":"1=Xi24lv{_Qf","GMRotation":-0.000023}},
{"type":"Feature","geometry":{"type":"Point","coordinates":[-102.34776,19.08513]},"properties":{"ID":99,"NOMBRE":"1a BIBLICA EVANGELICA","CONTROL":256,"Geometry1_":"1=Xi24Lo^=Y-","GMRotation":-0.000023}},
{"type":"Feature","geometry":{"type":"Point","coordinates":[-102.33861,19.08537]},"properties":{"ID":100,"NOMBRE":"DE LA VIRGEN DE CHOSTAN","CONTROL":257,"Geometry1_":"1=Xi24nM8YW>","GMRotation":-0.000023}},
{"type":"Feature","geometry":{"type":"Point","coordinates":[-102.35499,19.08301]},"properties":{"ID":101,"NOMBRE":"CASA PASTORAL","CONTROL":258,"Geometry1_":"1=Xi24m@9M1>","GMRotation":-0.000023}},
{"type":"Feature","geometry":{"type":"Point","coordinates":[-102.34466,19.08233]},"properties":{"ID":102,"NOMBRE":"DE SAN MARTIN DE PORRES","CONTROL":259,"Geometry1_":"1=Xi24M3WQJp","GMRotation":-0.000024}},
{"type":"Feature","geometry":{"type":"Point","coordinates":[-102.34925,19.08171]},"properties":{"ID":103,"NOMBRE":"NUESTRA SEÑORA DE GUADALUPE","CONTROL":260,"Geometry1_":"1=Xi24M\\dn?-","GMRotation":-0.000023}},
{"type":"Feature","geometry":{"type":"Point","coordinates":[-102.23562,19.61311]},"properties":{"ID":104,"NOMBRE":"ALTAR SAN PEDRO","CONTROL":261,"Geometry1_":"1=X<XdWhbyT>","GMRotation":-0.000021}},
{"type":"Feature","geometry":{"type":"Point","coordinates":[-102.23681,19.61095]},"properties":{"ID":105,"NOMBRE":"ESPIRITU SANTO","CONTROL":262,"Geometry1_":"1=X<XdWmATg-","GMRotation":-0.000021}},
{"type":"Feature","geometry":{"type":"Point","coordinates":[-102.23664,19.61008]},"properties":{"ID":106,"NOMBRE":"SAN FRANCISCO","CONTROL":263,"Geometry1_":"1=X<XdX)6g]>","GMRotation":-0.000021}},
{"type":"Feature","geometry":{"type":"Point","coordinates":[-102.23695,19.60831]},"properties":{"ID":107,"NOMBRE":"CAPILLA SAN ILDEFONSO","CONTROL":264,"Geometry1_":"1=X<XdX,JTJ>","GMRotation":-0.000021}},
{"type":"Feature","geometry":{"type":"Point","coordinates":[-102.23427,19.60734]},"properties":{"ID":108,"NOMBRE":"CAPILLA SAN SEBASTIAN","CONTROL":265,"Geometry1_":"1=X<XdX{e.d-","GMRotation":-0.000021}},
{"type":"Feature","geometry":{"type":"Point","coordinates":[-100.88905,18.58218]},"properties":{"ID":109,"NOMBRE":"VIRGEN DE LA NATIVIDAD","CONTROL":266,"Geometry1_":"1=XJ,)QR*=E-","GMRotation":-0.000017}},
{"type":"Feature","geometry":{"type":"Point","coordinates":[-100.4941,19.45907]},"properties":{"ID":110,"NOMBRE":"DE LA ASUNCION","CONTROL":268,"Geometry1_":"1=X=mRZ2Y*Gf","GMRotation":-0.000012}},
{"type":"Feature","geometry":{"type":"Point","coordinates":[-100.48902,19.46216]},"properties":{"ID":111,"NOMBRE":"SANTO NIÑO","CONTROL":269,"Geometry1_":"1=X=mRyn)Zhp","GMRotation":-0.000012}},
{"type":"Feature","geometry":{"type":"Point","coordinates":[-100.49474,19.45849]},"properties":{"ID":112,"NOMBRE":"EL DIVINO REDENTOR","CONTROL":270,"Geometry1_":"1=X=mRZ4]6?>","GMRotation":-0.000012}},
{"type":"Feature","geometry":{"type":"Point","coordinates":[-101.74478,19.77117]},"properties":{"ID":113,"NOMBRE":"SANTOS REYES MAGOS","CONTROL":271,"Geometry1_":"1=X<Z2hOy{6p","GMRotation":-0.00002}},
{"type":"Feature","geometry":{"type":"Point","coordinates":[-102.25924,19.65109]},"properties":{"ID":114,"NOMBRE":"SAN BARTOLO","CONTROL":272,"Geometry1_":"1=X<Xd{S;z=p","GMRotation":-0.000022}},
{"type":"Feature","geometry":{"type":"Point","coordinates":[-102.25212,19.64963]},"properties":{"ID":115,"NOMBRE":"SAN ANTONIO DE PADUA","CONTROL":273,"Geometry1_":"1=X<Xd+OAOZp","GMRotation":-0.000021}},
{"type":"Feature","geometry":{"type":"Point","coordinates":[-102.25156,19.64995]},"properties":{"ID":116,"NOMBRE":"SAN JOSE","CONTROL":274,"Geometry1_":"1=X<Xd+v)j8f","GMRotation":-0.000022}},
{"type":"Feature","geometry":{"type":"Point","coordinates":[-102.22203,19.79694]},"properties":{"ID":117,"NOMBRE":"SAN PEDRO","CONTROL":275,"Geometry1_":"1=X<X6e2LRi-","GMRotation":-0.000021}},
{"type":"Feature","geometry":{"type":"Point","coordinates":[-102.22176,19.7976]},"properties":{"ID":118,"NOMBRE":"YURITZIO","CONTROL":276,"Geometry1_":"1=X<X6e2+;8>","GMRotation":-0.000021}},
{"type":"Feature","geometry":{"type":"Point","coordinates":[-102.19004,19.69361]},"properties":{"ID":119,"NOMBRE":"SAN BARTOLOME","CONTROL":277,"Geometry1_":"1=X<X9n)P24f","GMRotation":-0.000021}},
{"type":"Feature","geometry":{"type":"Point","coordinates":[-102.18179,19.61701]},"properties":{"ID":120,"NOMBRE":"SAN FELIPE","CONTROL":278,"Geometry1_":"1=X<XDnD3,mf","GMRotation":-0.000021}},
{"type":"Feature","geometry":{"type":"Point","coordinates":[-100.96959,19.78882]},"properties":{"ID":121,"NOMBRE":"VIRGEN DE GUADALUPE","CONTROL":279,"Geometry1_":"1=X<z7bmro7p","GMRotation":-0.000015}},
{"type":"Feature","geometry":{"type":"Point","coordinates":[-100.97029,19.78916]},"properties":{"ID":122,"NOMBRE":"CONGREGACION","CONTROL":280,"Geometry1_":"1=X<z7=zEQyp","GMRotation":-0.000015}},
{"type":"Feature","geometry":{"type":"Point","coordinates":[-100.9689,19.78853]},"properties":{"ID":123,"NOMBRE":"SIN NOMBRE","CONTROL":281,"Geometry1_":"1=X<z7bMMm8-","GMRotation":-0.000015}},
{"type":"Feature","geometry":{"type":"Point","coordinates":[-100.96791,19.77898]},"properties":{"ID":124,"NOMBRE":"SIN NOMBRE","CONTROL":282,"Geometry1_":"1=X<z7r*7ZUp","GMRotation":-0.000015}},
{"type":"Feature","geometry":{"type":"Point","coordinates":[-102.49325,19.6325]},"properties":{"ID":125,"NOMBRE":"NUEVA CREACION","CONTROL":283,"Geometry1_":"1=X<X+Gtmr3p","GMRotation":-0.000135}},
{"type":"Feature","geometry":{"type":"Point","coordinates":[-102.49245,19.63569]},"properties":{"ID":126,"NOMBRE":"LA LUZ DEL MUNDO","CONTROL":284,"Geometry1_":"1=X<X+Gd8m?-","GMRotation":-0.000045}},
{"type":"Feature","geometry":{"type":"Point","coordinates":[-102.48992,19.64176]},"properties":{"ID":127,"NOMBRE":"SAGRADO CORAZON DE JESUS","CONTROL":285,"Geometry1_":"1=X<X+<H7i.f","GMRotation":-0.000022}},
{"type":"Feature","geometry":{"type":"Point","coordinates":[-102.35309,19.0727]},"properties":{"ID":128,"NOMBRE":"SAN JUDAS TADEO","CONTROL":1,"Geometry1_":"1=Xi2B)B1,e-","GMRotation":-0.000023}},
{"type":"Feature","geometry":{"type":"Point","coordinates":[-102.34121,19.06711]},"properties":{"ID":129,"NOMBRE":"SEÑOR DE LOS MILAGROS","CONTROL":2994,"Geometry1_":"1=Xi2B*yW]\\p","GMRotation":-0.000023}},
{"type":"Feature","geometry":{"type":"Point","coordinates":[-102.50373,19.09544]},"properties":{"ID":130,"NOMBRE":"NUESTRA SEÑORA DE LOURDES","CONTROL":3,"Geometry1_":"1=Xi2@HWh,E>","GMRotation":-0.000024}},
{"type":"Feature","geometry":{"type":"Point","coordinates":[-102.35757,19.07525]},"properties":{"ID":131,"NOMBRE":"LA DIVINA PROVIDENCIA","CONTROL":4,"Geometry1_":"1=Xi24mMWvQp","GMRotation":-0.000024}},
{"type":"Feature","geometry":{"type":"Point","coordinates":[-102.58689,19.21777]},"properties":{"ID":132,"NOMBRE":"DEL CARMEN","CONTROL":5,"Geometry1_":"1=Xi2*7Y<..f","GMRotation":-0.000023}},
{"type":"Feature","geometry":{"type":"Point","coordinates":[-102.59316,19.21073]},"properties":{"ID":133,"NOMBRE":"JUAN DIEGO","CONTROL":6,"Geometry1_":"1=Xi2*9gE?Ef","GMRotation":-0.000023}},
{"type":"Feature","geometry":{"type":"Point","coordinates":[-102.58814,19.209]},"properties":{"ID":134,"NOMBRE":"EVANGELICA CRISTIANA ESPIRITUAL","CONTROL":7,"Geometry1_":"1=Xi2*9SLwTp","GMRotation":-0.000023}},
{"type":"Feature","geometry":{"type":"Point","coordinates":[-102.5875,19.20984]},"properties":{"ID":135,"NOMBRE":"LA DIVINA CONCEPCION","CONTROL":8,"Geometry1_":"1=Xi2*9S49up","GMRotation":-0.000023}},
{"type":"Feature","geometry":{"type":"Point","coordinates":[-102.58685,19.2106]},"properties":{"ID":136,"NOMBRE":"DE GUADALUPE","CONTROL":9,"Geometry1_":"1=Xi2*9ti;^>","GMRotation":-0.000023}},
{"type":"Feature","geometry":{"type":"Point","coordinates":[-102.59095,19.20201]},"properties":{"ID":137,"NOMBRE":"DE SAN ISIDRO","CONTROL":11,"Geometry1_":"1=Xi2*D<YJOp","GMRotation":-0.000023}},
{"type":"Feature","geometry":{"type":"Point","coordinates":[-102.58551,19.20137]},"properties":{"ID":138,"NOMBRE":"SAGRADO CORAZON DE JESUS","CONTROL":12,"Geometry1_":"1=Xi2*DT+wR-","GMRotation":-0.000023}},
{"type":"Feature","geometry":{"type":"Point","coordinates":[-102.7063,19.15716]},"properties":{"ID":139,"NOMBRE":"EVANGELICA  EL DIVINO REDENTOR","CONTROL":13,"Geometry1_":"1=Xi2)P\\1^.f","GMRotation":-0.000023}},
{"type":"Feature","geometry":{"type":"Point","coordinates":[-102.70837,19.15931]},"properties":{"ID":140,"NOMBRE":"NUESTRA SEÑORA DE GUADALUPE","CONTROL":14,"Geometry1_":"1=Xi2)o64uvp","GMRotation":-0.000023}},
{"type":"Feature","geometry":{"type":"Point","coordinates":[-102.70729,19.16891]},"properties":{"ID":141,"NOMBRE":"CRISTO REY","CONTROL":15,"Geometry1_":"1=Xi2)n72{.-","GMRotation":-0.000023}},
{"type":"Feature","geometry":{"type":"Point","coordinates":[-102.25581,19.93201]},"properties":{"ID":142,"NOMBRE":"VIRGEN DE GUADALUPE","CONTROL":17,"Geometry1_":"1=X<WYJHKjb>","GMRotation":-0.000048}},
{"type":"Feature","geometry":{"type":"Point","coordinates":[-102.70946,18.98993]},"properties":{"ID":143,"NOMBRE":"JUAN DIEGO","CONTROL":18,"Geometry1_":"1=Xi2^?2t=Uf","GMRotation":-0.000024}},
{"type":"Feature","geometry":{"type":"Point","coordinates":[-102.71224,18.99449]},"properties":{"ID":144,"NOMBRE":"NUESTRA SEÑORA DE GUADALUPE","CONTROL":19,"Geometry1_":"1=Xi2^:JKb+f","GMRotation":-0.000024}},
{"type":"Feature","geometry":{"type":"Point","coordinates":[-101.5253,20.24053]},"properties":{"ID":145,"NOMBRE":"SAN FRANCISCO","CONTROL":20,"Geometry1_":"1=X<y\\^YyBdf","GMRotation":-0.000018}},
{"type":"Feature","geometry":{"type":"Point","coordinates":[-101.49558,20.24498]},"properties":{"ID":146,"NOMBRE":"DE SANTA ANA","CONTROL":21,"Geometry1_":"1=X<y\\b\\ootf","GMRotation":-0.000017}},
{"type":"Feature","geometry":{"type":"Point","coordinates":[-101.49513,20.24177]},"properties":{"ID":147,"NOMBRE":"SALVADORES DEL NUEVO MILENIO","CONTROL":22,"Geometry1_":"1=X<y\\bHSOWf","GMRotation":-0.000017}},
{"type":"Feature","geometry":{"type":"Point","coordinates":[-101.48035,20.20652]},"properties":{"ID":148,"NOMBRE":"DE LA PURISIMA CONCEPCION","CONTROL":23,"Geometry1_":"1=X<y\\Xcn.Bp","GMRotation":-0.000017}},
{"type":"Feature","geometry":{"type":"Point","coordinates":[-102.53814,19.16074]},"properties":{"ID":149,"NOMBRE":"SAGRADO CORAZON DE JESUS","CONTROL":24,"Geometry1_":"1=Xi2:vyZwGf","GMRotation":-0.000023}},
{"type":"Feature","geometry":{"type":"Point","coordinates":[-102.54028,19.1596]},"properties":{"ID":150,"NOMBRE":"APOSTOLICA YASHUAH HAMASHYAH","CONTROL":25,"Geometry1_":"1=Xi2:vXzuv-","GMRotation":-0.000023}},
{"type":"Feature","geometry":{"type":"Point","coordinates":[-101.57213,20.03503]},"properties":{"ID":151,"NOMBRE":"SAN NICOLAS DE TOLENTINO","CONTROL":26,"Geometry1_":"1=X<Yu@um+Ep","GMRotation":-0.000018}},
{"type":"Feature","geometry":{"type":"Point","coordinates":[-101.56234,20.03316]},"properties":{"ID":152,"NOMBRE":"DEL PERPETUO SOCORRO","CONTROL":27,"Geometry1_":"1=X<Yu3zJ*b-","GMRotation":-0.000073}},
{"type":"Feature","geometry":{"type":"Point","coordinates":[-102.79028,18.74245]},"properties":{"ID":153,"NOMBRE":"SAN JUAN BAUTISTA","CONTROL":28,"Geometry1_":"1=Xi1y<^EKy>","GMRotation":-0.000024}},
{"type":"Feature","geometry":{"type":"Point","coordinates":[-102.78822,18.73584]},"properties":{"ID":154,"NOMBRE":"NUESTRA SEÑORA DE GUADALUPE","CONTROL":29,"Geometry1_":"1=Xi1yi?2v,p","GMRotation":-0.000025}},
{"type":"Feature","geometry":{"type":"Point","coordinates":[-101.80323,18.97511]},"properties":{"ID":155,"NOMBRE":"SAGRADO CORAZON DE JESUS","CONTROL":30,"Geometry1_":"1=Xi6b+j,T:>","GMRotation":-0.000022}},
{"type":"Feature","geometry":{"type":"Point","coordinates":[-101.80041,18.96837]},"properties":{"ID":156,"NOMBRE":"CAPILLA DE LA SAGRADA FAMILIA","CONTROL":31,"Geometry1_":"1=Xi6b=Aw^Z>","GMRotation":-0.000022}},
{"type":"Feature","geometry":{"type":"Point","coordinates":[-101.80569,18.96969]},"properties":{"ID":157,"NOMBRE":"DE FATIMA","CONTROL":32,"Geometry1_":"1=Xi6b=,lg7p","GMRotation":-0.000022}},
{"type":"Feature","geometry":{"type":"Point","coordinates":[-101.80238,18.96353]},"properties":{"ID":158,"NOMBRE":"DE CRISTO BETHANIA BAUTISTA","CONTROL":33,"Geometry1_":"1=Xi6b=o6R:-","GMRotation":-0.000022}},
{"type":"Feature","geometry":{"type":"Point","coordinates":[-101.80855,18.96261]},"properties":{"ID":159,"NOMBRE":"PARROQUIA DE SAN NICOLAS DE TOLENTINO","CONTROL":34,"Geometry1_":"1=Xi6b<XvW)f","GMRotation":-0.000022}},
{"type":"Feature","geometry":{"type":"Point","coordinates":[-101.81145,18.95869]},"properties":{"ID":160,"NOMBRE":"EVANGELISTA","CONTROL":35,"Geometry1_":"1=Xi6bi=,eX>","GMRotation":-0.000022}},
{"type":"Feature","geometry":{"type":"Point","coordinates":[-101.81441,18.95295]},"properties":{"ID":161,"NOMBRE":"EVANGELISTA","CONTROL":36,"Geometry1_":"1=Xi6bj)1Rv>","GMRotation":-0.000022}},
{"type":"Feature","geometry":{"type":"Point","coordinates":[-101.33299,19.89982]},"properties":{"ID":162,"NOMBRE":"DE SAN NICOLAS DE TOLENTINO","CONTROL":37,"Geometry1_":"1=X<yo2?88E-","GMRotation":-0.000017}},
{"type":"Feature","geometry":{"type":"Point","coordinates":[-101.33307,19.89884]},"properties":{"ID":163,"NOMBRE":"DE LA INMACULADA CONCEPCION","CONTROL":38,"Geometry1_":"1=X<yo2?Znw-","GMRotation":-0.000018}},
{"type":"Feature","geometry":{"type":"Point","coordinates":[-101.21489,19.89355]},"properties":{"ID":164,"NOMBRE":"EL SEÑOR DEL ENTIERRO","CONTROL":39,"Geometry1_":"1=X<yw*ybm)p","GMRotation":-0.000017}},
{"type":"Feature","geometry":{"type":"Point","coordinates":[-101.63302,20.15045]},"properties":{"ID":165,"NOMBRE":"SAN FRANCISCO","CONTROL":40,"Geometry1_":"1=X<YeS=G<=p","GMRotation":-0.000018}},
{"type":"Feature","geometry":{"type":"Point","coordinates":[-101.21116,19.88961]},"properties":{"ID":166,"NOMBRE":"SIN NOMBRE","CONTROL":41,"Geometry1_":"1=X<yw??WO8f","GMRotation":-0.000017}},
{"type":"Feature","geometry":{"type":"Point","coordinates":[-101.96985,18.8788]},"properties":{"ID":167,"NOMBRE":"SAN ISIDRO LABRADOR","CONTROL":42,"Geometry1_":"1=Xi6iGw\\9*>","GMRotation":-0.000023}},
{"type":"Feature","geometry":{"type":"Point","coordinates":[-102.40892,19.86369]},"properties":{"ID":168,"NOMBRE":"VIRGEN DE GUADALUPE","CONTROL":43,"Geometry1_":"1=X<Ww<Xz=Up","GMRotation":-0.000021}},
{"type":"Feature","geometry":{"type":"Point","coordinates":[-102.43421,19.9569]},"properties":{"ID":169,"NOMBRE":"LA ESPERANZA","CONTROL":44,"Geometry1_":"1=X<Wv\\)J):-","GMRotation":-0.000055}},
{"type":"Feature","geometry":{"type":"Point","coordinates":[-102.43245,19.95483]},"properties":{"ID":170,"NOMBRE":"APOSTOL SANTIAGO","CONTROL":45,"Geometry1_":"1=X<Wv\\]D,:>","GMRotation":-0.000021}},
{"type":"Feature","geometry":{"type":"Point","coordinates":[-102.42641,19.95683]},"properties":{"ID":171,"NOMBRE":"SAN RAFAEL","CONTROL":46,"Geometry1_":"1=X<Wv\\7g_U>","GMRotation":-0.000027}},
{"type":"Feature","geometry":{"type":"Point","coordinates":[-102.43671,19.94817]},"properties":{"ID":172,"NOMBRE":"SAN JUDAS TADEO","CONTROL":47,"Geometry1_":"1=X<WODZog;-","GMRotation":-0.00001}},
{"type":"Feature","geometry":{"type":"Point","coordinates":[-102.43467,19.94419]},"properties":{"ID":173,"NOMBRE":"VIRGEN DE GUADALUPE","CONTROL":48,"Geometry1_":"1=X<WOEEDu+p","GMRotation":-0.000003}},
{"type":"Feature","geometry":{"type":"Point","coordinates":[-102.46726,19.83985]},"properties":{"ID":174,"NOMBRE":"SAN JUAN","CONTROL":49,"Geometry1_":"1=X<WPvQ]24>","GMRotation":-0.00002}},
{"type":"Feature","geometry":{"type":"Point","coordinates":[-102.46544,19.84292]},"properties":{"ID":175,"NOMBRE":"SANTIAGO","CONTROL":50,"Geometry1_":"1=X<WPv4U*L-","GMRotation":0.000022}},
{"type":"Feature","geometry":{"type":"Point","coordinates":[-102.46679,19.84425]},"properties":{"ID":176,"NOMBRE":"LAS VIRGENES","CONTROL":51,"Geometry1_":"1=X<WPv1Q7;-","GMRotation":-0.000052}},
{"type":"Feature","geometry":{"type":"Point","coordinates":[-102.46449,19.84565]},"properties":{"ID":177,"NOMBRE":"SAN FRANCISCO","CONTROL":52,"Geometry1_":"1=X<WPrZAcL>","GMRotation":-0.00002}},
{"type":"Feature","geometry":{"type":"Point","coordinates":[-102.4645,19.8486]},"properties":{"ID":178,"NOMBRE":"DE LA SALUD","CONTROL":53,"Geometry1_":"1=X<WPrtvAOp","GMRotation":-0.00002}},
{"type":"Feature","geometry":{"type":"Point","coordinates":[-102.46719,19.84789]},"properties":{"ID":179,"NOMBRE":"SAN PEDRO","CONTROL":54,"Geometry1_":"1=X<WPrr<.y>","GMRotation":-0.00002}},
{"type":"Feature","geometry":{"type":"Point","coordinates":[-102.4644,20.01174]},"properties":{"ID":180,"NOMBRE":"SAN PEDRO Y SAN PABLO","CONTROL":55,"Geometry1_":"1=X<WKQ8W*Z-","GMRotation":-0.00002}},
{"type":"Feature","geometry":{"type":"Point","coordinates":[-102.45936,20.00673]},"properties":{"ID":181,"NOMBRE":"VIRGEN DE GUADALUPE","CONTROL":56,"Geometry1_":"1=X<WKRn7ABp","GMRotation":-0.000028}},
{"type":"Feature","geometry":{"type":"Point","coordinates":[-102.46394,20.00333]},"properties":{"ID":182,"NOMBRE":"SAN MARTIN","CONTROL":57,"Geometry1_":"1=X<WKr7m<uf","GMRotation":-0.00002}},
{"type":"Feature","geometry":{"type":"Point","coordinates":[-102.16294,19.9209]},"properties":{"ID":183,"NOMBRE":"SAGRADO CORAZON DE JESUS","CONTROL":58,"Geometry1_":"1=X<Wyrz3bH-","GMRotation":-0.000021}},
{"type":"Feature","geometry":{"type":"Point","coordinates":[-102.28726,19.80461]},"properties":{"ID":184,"NOMBRE":"SAN FRANCISCO DE ASIS","CONTROL":59,"Geometry1_":"1=X<X2DBAD1p","GMRotation":-0.000021}},
{"type":"Feature","geometry":{"type":"Point","coordinates":[-102.29448,19.80459]},"properties":{"ID":185,"NOMBRE":"VIRGEN DE GUADALUPE","CONTROL":60,"Geometry1_":"1=X<X2dD+cBf","GMRotation":-0.000021}},
{"type":"Feature","geometry":{"type":"Point","coordinates":[-102.20681,19.89235]},"properties":{"ID":186,"NOMBRE":"DEL SEÑOR DE LA SALUD","CONTROL":61,"Geometry1_":"1=X<Wz)oG;^f","GMRotation":-0.00002}},
{"type":"Feature","geometry":{"type":"Point","coordinates":[-102.20754,19.88973]},"properties":{"ID":187,"NOMBRE":"DEL CARMEN","CONTROL":62,"Geometry1_":"1=X<Wz,.rPK-","GMRotation":-0.000021}},
{"type":"Feature","geometry":{"type":"Point","coordinates":[-102.20717,19.88867]},"properties":{"ID":188,"NOMBRE":"DE LA  ASUNCION","CONTROL":63,"Geometry1_":"1=X<Wz,]U9+f","GMRotation":-0.00002}},
{"type":"Feature","geometry":{"type":"Point","coordinates":[-102.20623,19.88306]},"properties":{"ID":189,"NOMBRE":"DIVINA PROVIDENCIA","CONTROL":64,"Geometry1_":"1=X<Wz,oc<6p","GMRotation":-0.000021}},
{"type":"Feature","geometry":{"type":"Point","coordinates":[-102.21422,19.88158]},"properties":{"ID":190,"NOMBRE":"LA VIRGEN DEL REFUGIO","CONTROL":65,"Geometry1_":"1=X<WZD;UT?>","GMRotation":-0.000021}},
{"type":"Feature","geometry":{"type":"Point","coordinates":[-101.01959,20.00656]},"properties":{"ID":191,"NOMBRE":"DE LA DIVINA CLEMENCIA","CONTROL":66,"Geometry1_":"1=X<yUtW9bip","GMRotation":-0.000015}},
{"type":"Feature","geometry":{"type":"Point","coordinates":[-102.09003,19.84499]},"properties":{"ID":192,"NOMBRE":"ROCA DE SALVACION","CONTROL":67,"Geometry1_":"1=X<YmrXWwUf","GMRotation":-0.000161}},
{"type":"Feature","geometry":{"type":"Point","coordinates":[-102.09077,19.84811]},"properties":{"ID":193,"NOMBRE":"SAN FRANCISCO DE ASIS","CONTROL":68,"Geometry1_":"1=X<YmrS,r\\p","GMRotation":-0.000021}},
{"type":"Feature","geometry":{"type":"Point","coordinates":[-102.09643,19.8476]},"properties":{"ID":194,"NOMBRE":"SAN MIGUEL ARCANGEL","CONTROL":69,"Geometry1_":"1=X<YmrHh9+p","GMRotation":-0.000021}},
{"type":"Feature","geometry":{"type":"Point","coordinates":[-102.03817,19.86085]},"properties":{"ID":195,"NOMBRE":"JUAN BAUTISTA","CONTROL":70,"Geometry1_":"1=X<YMi]DLJ-","GMRotation":-0.000021}},
{"type":"Feature","geometry":{"type":"Point","coordinates":[-102.05676,19.85967]},"properties":{"ID":196,"NOMBRE":"CALVARIO","CONTROL":71,"Geometry1_":"1=X<YMg<\\o9>","GMRotation":-0.00002}},
{"type":"Feature","geometry":{"type":"Point","coordinates":[-102.05315,19.85655]},"properties":{"ID":197,"NOMBRE":"SAN FRANCISCO DE ASIS","CONTROL":72,"Geometry1_":"1=X<YMgW*)mf","GMRotation":-0.00002}},
{"type":"Feature","geometry":{"type":"Point","coordinates":[-102.05111,19.85631]},"properties":{"ID":198,"NOMBRE":"NATIVIDAD","CONTROL":73,"Geometry1_":"1=X<YMgY8y_-","GMRotation":-0.00002}},
{"type":"Feature","geometry":{"type":"Point","coordinates":[-102.10528,19.84568]},"properties":{"ID":199,"NOMBRE":"SAN BARTOLOME","CONTROL":74,"Geometry1_":"1=X<YmKmB4m>","GMRotation":-0.00002}},
{"type":"Feature","geometry":{"type":"Point","coordinates":[-102.1112,19.84712]},"properties":{"ID":200,"NOMBRE":"SAGRADA FAMILIA","CONTROL":75,"Geometry1_":"1=X<YmjO2_U-","GMRotation":-0.00002}},
{"type":"Feature","geometry":{"type":"Point","coordinates":[-102.11141,19.83873]},"properties":{"ID":201,"NOMBRE":"FRANCISCO JAN FLOR","CONTROL":76,"Geometry1_":"1=X<YmnK@tX-","GMRotation":-0.00002}},
{"type":"Feature","geometry":{"type":"Point","coordinates":[-102.12158,19.84244]},"properties":{"ID":202,"NOMBRE":"VIRGEN DE GUADALUPE","CONTROL":77,"Geometry1_":"1=X<YmL{6+X-","GMRotation":-0.000021}},
{"type":"Feature","geometry":{"type":"Point","coordinates":[-102.11878,19.84043]},"properties":{"ID":203,"NOMBRE":"SAN JUDAS TADEO","CONTROL":78,"Geometry1_":"1=X<YmLcL1Rp","GMRotation":-0.000021}},
{"type":"Feature","geometry":{"type":"Point","coordinates":[-101.50806,19.89848]},"properties":{"ID":204,"NOMBRE":"EVANGELISTA","CONTROL":79,"Geometry1_":"1=X<ym:BB]Df","GMRotation":-0.000019}},
{"type":"Feature","geometry":{"type":"Point","coordinates":[-101.5062,19.90003]},"properties":{"ID":205,"NOMBRE":"LA PURISIMA","CONTROL":80,"Geometry1_":"1=X<ym:7MuR-","GMRotation":-0.000018}},
{"type":"Feature","geometry":{"type":"Point","coordinates":[-101.5059,19.89963]},"properties":{"ID":206,"NOMBRE":"SEÑORA DE GUADALUPE","CONTROL":81,"Geometry1_":"1=X<ym:9A^]f","GMRotation":-0.000018}},
{"type":"Feature","geometry":{"type":"Point","coordinates":[-101.50469,19.89946]},"properties":{"ID":207,"NOMBRE":"SANTA MARTHA","CONTROL":82,"Geometry1_":"1=X<ym;,bGtf","GMRotation":-0.000018}},
{"type":"Feature","geometry":{"type":"Point","coordinates":[-102.1196,19.84754]},"properties":{"ID":208,"NOMBRE":"PATRON SANTIAGO","CONTROL":83,"Geometry1_":"1=X<Ymhrrglf","GMRotation":-0.000021}},
{"type":"Feature","geometry":{"type":"Point","coordinates":[-100.44977,19.56907]},"properties":{"ID":209,"NOMBRE":"SAN ANTONIO ABAT","CONTROL":84,"Geometry1_":"1=X=me==1:Yf","GMRotation":-0.000012}},
{"type":"Feature","geometry":{"type":"Point","coordinates":[-101.09941,19.83518]},"properties":{"ID":210,"NOMBRE":"DE LA LUZ","CONTROL":85,"Geometry1_":"1=X<yXZ*9nwf","GMRotation":-0.000016}},
{"type":"Feature","geometry":{"type":"Point","coordinates":[-101.09581,19.83522]},"properties":{"ID":211,"NOMBRE":"DEL SEÑOR DE LA PAZ","CONTROL":86,"Geometry1_":"1=X<yXZ19T]-","GMRotation":-0.000016}},
{"type":"Feature","geometry":{"type":"Point","coordinates":[-101.75944,19.77697]},"properties":{"ID":212,"NOMBRE":"DE JESUS","CONTROL":87,"Geometry1_":"1=X<Z1u9OKJp","GMRotation":-0.00002}},
{"type":"Feature","geometry":{"type":"Point","coordinates":[-101.7259,19.84179]},"properties":{"ID":213,"NOMBRE":"LA LUZ DEL MUNDO","CONTROL":88,"Geometry1_":"1=X<YXOAgL)-","GMRotation":-0.000019}},
{"type":"Feature","geometry":{"type":"Point","coordinates":[-101.72812,19.83579]},"properties":{"ID":214,"NOMBRE":"DE GUADALUPE","CONTROL":89,"Geometry1_":"1=X<YXOohH,f","GMRotation":-0.000019}},
{"type":"Feature","geometry":{"type":"Point","coordinates":[-100.28494,19.62055]},"properties":{"ID":215,"NOMBRE":"DE DOLORES","CONTROL":90,"Geometry1_":"1=X=M\\Sm,.,p","GMRotation":-0.000011}},
{"type":"Feature","geometry":{"type":"Point","coordinates":[-100.28504,19.61988]},"properties":{"ID":216,"NOMBRE":"DOLORES","CONTROL":91,"Geometry1_":"1=X=M\\rzuKtp","GMRotation":-0.000011}},
{"type":"Feature","geometry":{"type":"Point","coordinates":[-100.28837,19.61969]},"properties":{"ID":217,"NOMBRE":"INMACULADA CONCEPCION","CONTROL":92,"Geometry1_":"1=X=M\\rXm26p","GMRotation":-0.000013}},
{"type":"Feature","geometry":{"type":"Point","coordinates":[-100.28548,19.6173]},"properties":{"ID":218,"NOMBRE":"DE EL RESCATE","CONTROL":93,"Geometry1_":"1=X=M\\v9w+cp","GMRotation":0}},
{"type":"Feature","geometry":{"type":"Point","coordinates":[-100.28548,19.62352]},"properties":{"ID":219,"NOMBRE":"DE LA CUEVA","CONTROL":94,"Geometry1_":"1=X=M\\rTQP+>","GMRotation":0}},
{"type":"Feature","geometry":{"type":"Point","coordinates":[-100.30631,19.61172]},"properties":{"ID":220,"NOMBRE":"DE GUADALUPE","CONTROL":95,"Geometry1_":"1=X=M\\nWU+R>","GMRotation":0}},
{"type":"Feature","geometry":{"type":"Point","coordinates":[-100.29258,19.61418]},"properties":{"ID":221,"NOMBRE":"CAPILLA EL SEÑOR DE LA MISERICORDIA","CONTROL":96,"Geometry1_":"1=X=M\\vGQgG>","GMRotation":-0.000011}},
{"type":"Feature","geometry":{"type":"Point","coordinates":[-100.28384,19.62227]},"properties":{"ID":222,"NOMBRE":"CRISTO REY","CONTROL":97,"Geometry1_":"1=X=M\\SHub4p","GMRotation":0}},
{"type":"Feature","geometry":{"type":"Point","coordinates":[-100.4656,19.57399]},"properties":{"ID":223,"NOMBRE":"NACIONAL","CONTROL":98,"Geometry1_":"1=X=me]YlJ?f","GMRotation":-0.000012}},
{"type":"Feature","geometry":{"type":"Point","coordinates":[-100.4583,19.57053]},"properties":{"ID":224,"NOMBRE":"SAN JUAN BAUTISTA","CONTROL":99,"Geometry1_":"1=X=me<3n.2>","GMRotation":-0.000012}},
{"type":"Feature","geometry":{"type":"Point","coordinates":[-100.46286,19.56912]},"properties":{"ID":225,"NOMBRE":"EL BUEN PASTOR","CONTROL":101,"Geometry1_":"1=X=me<\\Pl6>","GMRotation":-0.000012}},
{"type":"Feature","geometry":{"type":"Point","coordinates":[-101.17564,19.79501]},"properties":{"ID":226,"NOMBRE":"SAN MIGUEL","CONTROL":102,"Geometry1_":"1=X<z1e\\Ery>","GMRotation":-0.000017}},
{"type":"Feature","geometry":{"type":"Point","coordinates":[-101.17563,19.79466]},"properties":{"ID":227,"NOMBRE":"DE LA ESCALERA","CONTROL":103,"Geometry1_":"1=X<z1e\\y2hp","GMRotation":-0.000017}},
{"type":"Feature","geometry":{"type":"Point","coordinates":[-100.46405,19.56752]},"properties":{"ID":228,"NOMBRE":"SANTIAGO APOSTOL","CONTROL":104,"Geometry1_":"1=X=me_T+H\\>","GMRotation":-0.000012}},
{"type":"Feature","geometry":{"type":"Point","coordinates":[-100.46066,19.56517]},"properties":{"ID":229,"NOMBRE":"IGLESIA ADVENTISTA EL SEPTIMO DIA","CONTROL":105,"Geometry1_":"1=X=me<n{HDp","GMRotation":-0.000012}},
{"type":"Feature","geometry":{"type":"Point","coordinates":[-101.06451,19.96453]},"properties":{"ID":230,"NOMBRE":"DE SAN LORENZO","CONTROL":106,"Geometry1_":"1=X<yY.9Xolf","GMRotation":-0.000016}},
{"type":"Feature","geometry":{"type":"Point","coordinates":[-101.06173,19.96458]},"properties":{"ID":231,"NOMBRE":"DEL SOCORRO","CONTROL":107,"Geometry1_":"1=X<yY??mhBf","GMRotation":-0.000015}},
{"type":"Feature","geometry":{"type":"Point","coordinates":[-101.43852,19.54623]},"properties":{"ID":232,"NOMBRE":"DEL NIÑO JESUS","CONTROL":108,"Geometry1_":"1=X<z_jlEne-","GMRotation":-0.000018}},
{"type":"Feature","geometry":{"type":"Point","coordinates":[-101.07241,19.96126]},"properties":{"ID":233,"NOMBRE":"DE SAN AGUSTIN","CONTROL":109,"Geometry1_":"1=X<yY.gy{9>","GMRotation":-0.000016}},
{"type":"Feature","geometry":{"type":"Point","coordinates":[-101.08731,19.79192]},"properties":{"ID":234,"NOMBRE":"DE LA VIRGEN DE GUADALUPE","CONTROL":110,"Geometry1_":"1=X<z2Er*Y6f","GMRotation":-0.000016}},
{"type":"Feature","geometry":{"type":"Point","coordinates":[-101.14227,19.87229]},"properties":{"ID":235,"NOMBRE":"DE LA VIRGEN DE GUADALUPE","CONTROL":111,"Geometry1_":"1=X<yX_2Jlcp","GMRotation":-0.000052}},
{"type":"Feature","geometry":{"type":"Point","coordinates":[-101.41199,19.56506]},"properties":{"ID":236,"NOMBRE":"CRISTO REY","CONTROL":112,"Geometry1_":"1=X<z_byb<]p","GMRotation":-0.000018}},
{"type":"Feature","geometry":{"type":"Point","coordinates":[-100.43354,19.31135]},"properties":{"ID":237,"NOMBRE":"NUSTRA SRA DE GUADALUPE","CONTROL":113,"Geometry1_":"1=X=mYWLK,+-","GMRotation":-0.000012}},
{"type":"Feature","geometry":{"type":"Point","coordinates":[-100.43353,19.31455]},"properties":{"ID":238,"NOMBRE":"SIN NOMBRE","CONTROL":114,"Geometry1_":"1=X=mYW_P\\Qf","GMRotation":-0.000012}},
{"type":"Feature","geometry":{"type":"Point","coordinates":[-100.43483,19.31325]},"properties":{"ID":239,"NOMBRE":"SIN NOMBRE","CONTROL":115,"Geometry1_":"1=X=mYWH:.W-","GMRotation":-0.000012}},
{"type":"Feature","geometry":{"type":"Point","coordinates":[-101.27515,19.98741]},"properties":{"ID":240,"NOMBRE":"SAN JERONIMO","CONTROL":116,"Geometry1_":"1=X<yKOvG*;f","GMRotation":-0.000017}},
{"type":"Feature","geometry":{"type":"Point","coordinates":[-101.27587,19.9871]},"properties":{"ID":241,"NOMBRE":"EL SEÑOR DEL AMPARO","CONTROL":117,"Geometry1_":"1=X<yKOOv*zp","GMRotation":-0.000017}},
{"type":"Feature","geometry":{"type":"Point","coordinates":[-101.43382,19.89222]},"properties":{"ID":242,"NOMBRE":"DE LA MERCED","CONTROL":118,"Geometry1_":"1=X<yM:wTPbp","GMRotation":-0.000018}},
{"type":"Feature","geometry":{"type":"Point","coordinates":[-101.43693,19.89908]},"properties":{"ID":243,"NOMBRE":"MONTE SINAI","CONTROL":119,"Geometry1_":"1=X<yM:?n.uf","GMRotation":-0.000018}},
{"type":"Feature","geometry":{"type":"Point","coordinates":[-101.1504,19.97176]},"properties":{"ID":244,"NOMBRE":"SIN NOMBRE","CONTROL":120,"Geometry1_":"1=X<yW)eOSJf","GMRotation":0.000052}},
{"type":"Feature","geometry":{"type":"Point","coordinates":[-101.1463,19.96953]},"properties":{"ID":245,"NOMBRE":"DE LA CONCEPCION","CONTROL":121,"Geometry1_":"1=X<yW*huw8p","GMRotation":-0.000016}},
{"type":"Feature","geometry":{"type":"Point","coordinates":[-101.14079,19.96795]},"properties":{"ID":246,"NOMBRE":"SAN PEDRO Y SAN PABLO","CONTROL":122,"Geometry1_":"1=X<yW*Z2h2>","GMRotation":-0.000016}},
{"type":"Feature","geometry":{"type":"Point","coordinates":[-101.13924,19.96929]},"properties":{"ID":247,"NOMBRE":"SANTUARIO DE LA VIRGEN DE GUADALUPE","CONTROL":123,"Geometry1_":"1=X<yW*uzt,>","GMRotation":-0.000016}},
{"type":"Feature","geometry":{"type":"Point","coordinates":[-101.13802,19.96867]},"properties":{"ID":248,"NOMBRE":"SANTA MARIA MAGDALENA","CONTROL":124,"Geometry1_":"1=X<yW:L^Hw>","GMRotation":-0.000016}},
{"type":"Feature","geometry":{"type":"Point","coordinates":[-101.13622,19.97394]},"properties":{"ID":249,"NOMBRE":"DE LOS CERRITOS","CONTROL":125,"Geometry1_":"1=X<yW:?wnup","GMRotation":-0.000016}},
{"type":"Feature","geometry":{"type":"Point","coordinates":[-101.13881,19.9685]},"properties":{"ID":250,"NOMBRE":"HOSPITALITO","CONTROL":126,"Geometry1_":"1=X<yW:liXdf","GMRotation":-0.000016}},
{"type":"Feature","geometry":{"type":"Point","coordinates":[-101.13956,19.9658]},"properties":{"ID":251,"NOMBRE":"DEL CALVARIO","CONTROL":127,"Geometry1_":"1=X<yW.7XABf","GMRotation":-0.000016}},
{"type":"Feature","geometry":{"type":"Point","coordinates":[-101.12644,19.01672]},"properties":{"ID":252,"NOMBRE":"NUESTRO SEÑOR DE CARACUARO","CONTROL":128,"Geometry1_":"1=Xi7BO?ulGf","GMRotation":-0.000017}},
{"type":"Feature","geometry":{"type":"Point","coordinates":[-101.4127,20.00415]},"properties":{"ID":253,"NOMBRE":"DEL SEÑOR DEL PERDON","CONTROL":129,"Geometry1_":"1=X<yhr69Oif","GMRotation":-0.000017}},
{"type":"Feature","geometry":{"type":"Point","coordinates":[-101.41163,20.00583]},"properties":{"ID":254,"NOMBRE":"SANTUARIO DE GUADALUPE","CONTROL":130,"Geometry1_":"1=X<yhQyYc6-","GMRotation":-0.000017}},
{"type":"Feature","geometry":{"type":"Point","coordinates":[-101.16158,19.04227]},"properties":{"ID":255,"NOMBRE":"SANTA CATARINA","CONTROL":131,"Geometry1_":"1=Xi7AEbzK3p","GMRotation":-0.000018}},
{"type":"Feature","geometry":{"type":"Point","coordinates":[-101.17373,19.96513]},"properties":{"ID":256,"NOMBRE":"DE SAN GUILLERMO","CONTROL":132,"Geometry1_":"1=X<yv8?bw6p","GMRotation":-0.000017}},
{"type":"Feature","geometry":{"type":"Point","coordinates":[-101.16983,19.96904]},"properties":{"ID":257,"NOMBRE":"SAN JUAN BAUTISTA","CONTROL":133,"Geometry1_":"1=X<yv6W9.rp","GMRotation":-0.000017}},
{"type":"Feature","geometry":{"type":"Point","coordinates":[-101.27257,19.99294]},"properties":{"ID":258,"NOMBRE":"SANTUARIO DE LA VIRGEN DE GUADALUPE","CONTROL":134,"Geometry1_":"1=X<yKO8nd,f","GMRotation":-0.000017}},
{"type":"Feature","geometry":{"type":"Point","coordinates":[-101.15002,20.03275]},"properties":{"ID":259,"NOMBRE":"SANTO NIÑO DE ATOCHA","CONTROL":135,"Geometry1_":"1=X<yS,ZYLy>","GMRotation":0.000557}},
{"type":"Feature","geometry":{"type":"Point","coordinates":[-101.16235,20.0282]},"properties":{"ID":260,"NOMBRE":"DE LA VIRGEN DE GUADALUPE","CONTROL":136,"Geometry1_":"1=X<yrDbjLP>","GMRotation":-0.000016}},
{"type":"Feature","geometry":{"type":"Point","coordinates":[-101.50311,20.09703]},"properties":{"ID":261,"NOMBRE":"SIN NOMBRE","CONTROL":137,"Geometry1_":"1=X<yg=.6u7f","GMRotation":-0.000018}},
{"type":"Feature","geometry":{"type":"Point","coordinates":[-101.51055,20.09174]},"properties":{"ID":262,"NOMBRE":"DEL NIÑADO","CONTROL":138,"Geometry1_":"1=X<yg<KQj<p","GMRotation":-0.000018}},
{"type":"Feature","geometry":{"type":"Point","coordinates":[-101.50983,20.08667]},"properties":{"ID":263,"NOMBRE":"DEL SANTUARIO","CONTROL":141,"Geometry1_":"1=X<ygi3M.P-","GMRotation":-0.000018}},
{"type":"Feature","geometry":{"type":"Point","coordinates":[-102.22478,19.54758]},"properties":{"ID":264,"NOMBRE":"SANTIAGO APOSTOL","CONTROL":142,"Geometry1_":"1=X<XeUjdTM-","GMRotation":-0.000022}},
{"type":"Feature","geometry":{"type":"Point","coordinates":[-100.67767,19.58009]},"properties":{"ID":265,"NOMBRE":"SRA DE LA NATIVIDAD","CONTROL":143,"Geometry1_":"1=X=m=+.iwZf","GMRotation":0}},
{"type":"Feature","geometry":{"type":"Point","coordinates":[-100.48637,19.76507]},"properties":{"ID":266,"NOMBRE":"SRA DE LA NATIVIDAD","CONTROL":144,"Geometry1_":"1=X=m2yboYS-","GMRotation":-0.000012}},
{"type":"Feature","geometry":{"type":"Point","coordinates":[-100.74154,18.89661]},"properties":{"ID":267,"NOMBRE":"SAGRADO CORAZON DE JESUS","CONTROL":145,"Geometry1_":"1=XJ)ib:7hip","GMRotation":-0.000015}},
{"type":"Feature","geometry":{"type":"Point","coordinates":[-100.73673,18.9018]},"properties":{"ID":268,"NOMBRE":"SAN LUCAS  EVANGELISTA","CONTROL":146,"Geometry1_":"1=XJ)iAeuDSp","GMRotation":-0.000015}},
{"type":"Feature","geometry":{"type":"Point","coordinates":[-101.61223,19.67686]},"properties":{"ID":269,"NOMBRE":"SAN JERONIMO","CONTROL":147,"Geometry1_":"1=X<Z8zw9,Q-","GMRotation":-0.000019}},
{"type":"Feature","geometry":{"type":"Point","coordinates":[-100.41045,19.67057]},"properties":{"ID":270,"NOMBRE":"SAN LUCAS EVANGELISTA","CONTROL":148,"Geometry1_":"1=X=md7Rg;if","GMRotation":-0.000012}},
{"type":"Feature","geometry":{"type":"Point","coordinates":[-100.41107,19.66679]},"properties":{"ID":271,"NOMBRE":"SIN NOMBRE","CONTROL":149,"Geometry1_":"1=X=md7wrM2p","GMRotation":-0.000011}},
{"type":"Feature","geometry":{"type":"Point","coordinates":[-100.66344,18.3703]},"properties":{"ID":272,"NOMBRE":"PARROQUIA SAN PEDRO Y SAN PBLO","CONTROL":150,"Geometry1_":"1=XJ,=b2JXh-","GMRotation":-0.000015}},
{"type":"Feature","geometry":{"type":"Point","coordinates":[-101.52403,19.66408]},"properties":{"ID":273,"NOMBRE":"DE LA INMACULADA","CONTROL":151,"Geometry1_":"1=X<z\\.\\)+h-","GMRotation":-0.000019}},
{"type":"Feature","geometry":{"type":"Point","coordinates":[-101.5284,19.66492]},"properties":{"ID":274,"NOMBRE":"DE GUADALUPE","CONTROL":152,"Geometry1_":"1=X<z\\,3{r7p","GMRotation":-0.000019}},
{"type":"Feature","geometry":{"type":"Point","coordinates":[-101.52176,19.66348]},"properties":{"ID":275,"NOMBRE":"SAN VICENTE","CONTROL":153,"Geometry1_":"1=X<z\\.]Tetp","GMRotation":-0.000018}},
{"type":"Feature","geometry":{"type":"Point","coordinates":[-101.52105,19.67198]},"properties":{"ID":276,"NOMBRE":"SAN MIGUEL","CONTROL":154,"Geometry1_":"1=X<z\\*<AcSp","GMRotation":-0.000019}},
{"type":"Feature","geometry":{"type":"Point","coordinates":[-100.78873,18.58254]},"properties":{"ID":277,"NOMBRE":"NUEVA","CONTROL":155,"Geometry1_":"1=XJ,*T<SPK>","GMRotation":-0.000016}},
{"type":"Feature","geometry":{"type":"Point","coordinates":[-100.78432,18.58904]},"properties":{"ID":278,"NOMBRE":"SANTUARIO DE NUESTRA SRA DE SAN LUCAS","CONTROL":156,"Geometry1_":"1=XJ,*EY@Jzp","GMRotation":-0.000016}},
{"type":"Feature","geometry":{"type":"Point","coordinates":[-102.52132,19.70369]},"properties":{"ID":279,"NOMBRE":"VIRGEN DE GUADALUPE","CONTROL":286,"Geometry1_":"1=X<X?U6]]3>","GMRotation":-0.000011}},
{"type":"Feature","geometry":{"type":"Point","coordinates":[-102.52702,19.69458]},"properties":{"ID":280,"NOMBRE":"PUEBLO NUEVO","CONTROL":287,"Geometry1_":"1=X<X?Y*:<2f","GMRotation":-0.000011}},
{"type":"Feature","geometry":{"type":"Point","coordinates":[-101.69705,19.21366]},"properties":{"ID":281,"NOMBRE":"NUEVA","CONTROL":289,"Geometry1_":"1=Xi6283w83p","GMRotation":-0.000021}},
{"type":"Feature","geometry":{"type":"Point","coordinates":[-101.69491,19.2153]},"properties":{"ID":282,"NOMBRE":"EL SEÑOR DE CARACUARO","CONTROL":290,"Geometry1_":"1=Xi6286=Pl>","GMRotation":-0.000021}},
{"type":"Feature","geometry":{"type":"Point","coordinates":[-101.70985,19.20871]},"properties":{"ID":283,"NOMBRE":"VIRGEN DEL CARMEN","CONTROL":291,"Geometry1_":"1=Xi624L2wJ-","GMRotation":-0.000021}},
{"type":"Feature","geometry":{"type":"Point","coordinates":[-101.70804,19.21001]},"properties":{"ID":284,"NOMBRE":"MONASTERIO JESUS MARIA","CONTROL":292,"Geometry1_":"1=Xi624K*6Dp","GMRotation":-0.000021}},
{"type":"Feature","geometry":{"type":"Point","coordinates":[-101.70612,19.20814]},"properties":{"ID":285,"NOMBRE":"SAGRADO CORAZON","CONTROL":293,"Geometry1_":"1=Xi624vtyr>","GMRotation":-0.000021}},
{"type":"Feature","geometry":{"type":"Point","coordinates":[-101.70524,19.20413]},"properties":{"ID":286,"NOMBRE":"SAN ISIDRO LABRADOR","CONTROL":294,"Geometry1_":"1=Xi62BB196>","GMRotation":-0.000021}},
{"type":"Feature","geometry":{"type":"Point","coordinates":[-101.71289,19.21021]},"properties":{"ID":287,"NOMBRE":"NUEVA","CONTROL":295,"Geometry1_":"1=Xi623TlUWp","GMRotation":-0.000021}},
{"type":"Feature","geometry":{"type":"Point","coordinates":[-101.70908,19.20769]},"properties":{"ID":288,"NOMBRE":"SANTIAGO APOSTOL","CONTROL":296,"Geometry1_":"1=Xi624noZ)-","GMRotation":-0.000021}},
{"type":"Feature","geometry":{"type":"Point","coordinates":[-101.69544,20.0209]},"properties":{"ID":289,"NOMBRE":"DE LA INMACULADA CONCEPCION","CONTROL":297,"Geometry1_":"1=X<YSe4zU]p","GMRotation":-0.000019}},
{"type":"Feature","geometry":{"type":"Point","coordinates":[-101.69066,20.02737]},"properties":{"ID":290,"NOMBRE":"DE SAN JOSE","CONTROL":298,"Geometry1_":"1=X<YSDi^J_f","GMRotation":-0.000019}},
{"type":"Feature","geometry":{"type":"Point","coordinates":[-101.6883,20.01771]},"properties":{"ID":291,"NOMBRE":"DE LA VIRGEN DE GUADALUPE","CONTROL":299,"Geometry1_":"1=X<YSEQH=bp","GMRotation":-0.000019}},
{"type":"Feature","geometry":{"type":"Point","coordinates":[-101.76145,19.9912]},"properties":{"ID":292,"NOMBRE":"SIN NOMBRE","CONTROL":300,"Geometry1_":"1=X<YrycB4c-","GMRotation":-0.000019}},
{"type":"Feature","geometry":{"type":"Point","coordinates":[-100.89416,19.81037]},"properties":{"ID":293,"NOMBRE":"SIN NOMBRE","CONTROL":301,"Geometry1_":"1=X=m)3He17p","GMRotation":-0.000015}},
{"type":"Feature","geometry":{"type":"Point","coordinates":[-100.89291,19.80668]},"properties":{"ID":294,"NOMBRE":"SANTA CRUZ","CONTROL":302,"Geometry1_":"1=X=m)A*T.1f","GMRotation":-0.000015}},
{"type":"Feature","geometry":{"type":"Point","coordinates":[-100.89398,19.81983]},"properties":{"ID":295,"NOMBRE":"SIN NOMBRE","CONTROL":303,"Geometry1_":"1=X=m)1HDEm>","GMRotation":0}},
{"type":"Feature","geometry":{"type":"Point","coordinates":[-101.33135,19.48063]},"properties":{"ID":296,"NOMBRE":"NUEVA","CONTROL":304,"Geometry1_":"1=X<ziRv<)]>","GMRotation":-0.000018}},
{"type":"Feature","geometry":{"type":"Point","coordinates":[-101.33351,19.49233]},"properties":{"ID":297,"NOMBRE":"SAGRADO CORAZON","CONTROL":305,"Geometry1_":"1=X<zici={bp","GMRotation":-0.000018}},
{"type":"Feature","geometry":{"type":"Point","coordinates":[-101.33845,19.50972]},"properties":{"ID":298,"NOMBRE":"CAPILLA SAN ISIDRO","CONTROL":306,"Geometry1_":"1=X<zi3UGrtf","GMRotation":-0.000018}},
{"type":"Feature","geometry":{"type":"Point","coordinates":[-101.33259,19.49746]},"properties":{"ID":299,"NOMBRE":"SAN NICOLAS DE TOLENTINO","CONTROL":307,"Geometry1_":"1=X<zic;*Aep","GMRotation":-0.000018}},
{"type":"Feature","geometry":{"type":"Point","coordinates":[-102.54722,19.73055]},"properties":{"ID":300,"NOMBRE":"MIGUEL ARCANGEL","CONTROL":308,"Geometry1_":"1=X<X?A,^3D-","GMRotation":-0.000022}},
{"type":"Feature","geometry":{"type":"Point","coordinates":[-102.54616,19.73142]},"properties":{"ID":301,"NOMBRE":"EMMANUEL","CONTROL":309,"Geometry1_":"1=X<X?A)ud1f","GMRotation":-0.000022}},
{"type":"Feature","geometry":{"type":"Point","coordinates":[-102.54774,19.73277]},"properties":{"ID":302,"NOMBRE":"SAN ANTONIO","CONTROL":310,"Geometry1_":"1=X<X?@zR)<-","GMRotation":-0.000022}},
{"type":"Feature","geometry":{"type":"Point","coordinates":[-102.54239,19.73585]},"properties":{"ID":303,"NOMBRE":"CRISTO REY","CONTROL":311,"Geometry1_":"1=X<X?3QM1gp","GMRotation":-0.000022}},
{"type":"Feature","geometry":{"type":"Point","coordinates":[-102.48147,19.73939]},"properties":{"ID":304,"NOMBRE":"DE LA ASUNCION","CONTROL":312,"Geometry1_":"1=X<X@@,lz\\p","GMRotation":-0.000022}},
{"type":"Feature","geometry":{"type":"Point","coordinates":[-102.48415,19.73525]},"properties":{"ID":305,"NOMBRE":"CRISTO ES EL CAMINO","CONTROL":313,"Geometry1_":"1=X<X@?Se1z-","GMRotation":0.000018}},
{"type":"Feature","geometry":{"type":"Point","coordinates":[-102.72494,19.99691]},"properties":{"ID":306,"NOMBRE":"VIRGEN DE GUADALUPE","CONTROL":314,"Geometry1_":"1=X<WHhlb9cp","GMRotation":-0.000021}},
{"type":"Feature","geometry":{"type":"Point","coordinates":[-102.72175,19.9905]},"properties":{"ID":307,"NOMBRE":"SAGRADO CORAZON DE JESUS","CONTROL":315,"Geometry1_":"1=X<WHL=nXbp","GMRotation":-0.000113}},
{"type":"Feature","geometry":{"type":"Point","coordinates":[-102.72036,19.99257]},"properties":{"ID":308,"NOMBRE":"SANTA ANITA","CONTROL":316,"Geometry1_":"1=X<WHLA1LBp","GMRotation":-0.000149}},
{"type":"Feature","geometry":{"type":"Point","coordinates":[-102.71802,19.99094]},"properties":{"ID":309,"NOMBRE":"SAN FRANCISCO DE ASIS","CONTROL":317,"Geometry1_":"1=X<WHLebm9p","GMRotation":0.000026}},
{"type":"Feature","geometry":{"type":"Point","coordinates":[-102.71511,19.99338]},"properties":{"ID":310,"NOMBRE":"SAN CAYETANO","CONTROL":318,"Geometry1_":"1=X<WHn,EDEf","GMRotation":-0.000034}},
{"type":"Feature","geometry":{"type":"Point","coordinates":[-102.70239,20.03011]},"properties":{"ID":311,"NOMBRE":"NUEVA CREACION","CONTROL":319,"Geometry1_":"1=X<WH++6X@-","GMRotation":-0.000034}},
{"type":"Feature","geometry":{"type":"Point","coordinates":[-102.68024,19.9859]},"properties":{"ID":312,"NOMBRE":"VIRGEN DE LOS REMEDIOS","CONTROL":320,"Geometry1_":"1=X<WHWZWB8>","GMRotation":-0.00002}},
{"type":"Feature","geometry":{"type":"Point","coordinates":[-101.99876,20.17227]},"properties":{"ID":313,"NOMBRE":"SEÑOR DEL PERDON","CONTROL":321,"Geometry1_":"1=X<Y_e;PU4-","GMRotation":-0.00002}},
{"type":"Feature","geometry":{"type":"Point","coordinates":[-103.66817,18.75313]},"properties":{"ID":314,"NOMBRE":"SAN JOSE","CONTROL":322,"Geometry1_":"1=Xi;OAAdoBp","GMRotation":-0.000021}},
{"type":"Feature","geometry":{"type":"Point","coordinates":[-103.66309,18.6862]},"properties":{"ID":315,"NOMBRE":"SAGRADO CORAZON DE JESUS","CONTROL":323,"Geometry1_":"1=Xi;P4_^9np","GMRotation":-0.000021}},
{"type":"Feature","geometry":{"type":"Point","coordinates":[-103.66372,18.68955]},"properties":{"ID":316,"NOMBRE":"CRISTIANA INTERDENOMINACIONAL EVANGELICA BETEL","CONTROL":324,"Geometry1_":"1=Xi;P4)Qc+-","GMRotation":-0.000021}},
{"type":"Feature","geometry":{"type":"Point","coordinates":[-103.66299,18.70062]},"properties":{"ID":317,"NOMBRE":"SAN JOSE OBRERO","CONTROL":325,"Geometry1_":"1=Xi;OXM*wt>","GMRotation":-0.000021}},
{"type":"Feature","geometry":{"type":"Point","coordinates":[-101.9475,20.25536]},"properties":{"ID":318,"NOMBRE":"SANTO NIÑO","CONTROL":326,"Geometry1_":"1=X<Y{+D.?c-","GMRotation":-0.000019}},
{"type":"Feature","geometry":{"type":"Point","coordinates":[-101.95805,20.25374]},"properties":{"ID":319,"NOMBRE":"LA ERMITA","CONTROL":327,"Geometry1_":"1=X<Y{{eG?u-","GMRotation":-0.000019}},
{"type":"Feature","geometry":{"type":"Point","coordinates":[-102.43881,19.95543]},"properties":{"ID":320,"NOMBRE":"SEÑOR DE LOS MILAGROS","CONTROL":328,"Geometry1_":"1=X<WOD3KXZf","GMRotation":-0.000046}},
{"type":"Feature","geometry":{"type":"Point","coordinates":[-102.2465,19.64969]},"properties":{"ID":321,"NOMBRE":"SANTO SANTIAGO","CONTROL":329,"Geometry1_":"1=X<XdAl{eJp","GMRotation":-0.000022}},
{"type":"Feature","geometry":{"type":"Point","coordinates":[-102.47199,19.59782]},"properties":{"ID":322,"NOMBRE":"EVANGELICA","CONTROL":330,"Geometry1_":"1=X<X=1\\G;Xf","GMRotation":-0.000014}},
{"type":"Feature","geometry":{"type":"Point","coordinates":[-102.47712,19.59571]},"properties":{"ID":323,"NOMBRE":"LA DIVINA PROVIDENCIA","CONTROL":331,"Geometry1_":"1=X<X=;JdbHf","GMRotation":-0.000022}},
{"type":"Feature","geometry":{"type":"Point","coordinates":[-102.46943,19.59246]},"properties":{"ID":324,"NOMBRE":"SANTA ROSA","CONTROL":332,"Geometry1_":"1=X<X=1o:u2p","GMRotation":-0.000022}},
{"type":"Feature","geometry":{"type":"Point","coordinates":[-102.47354,19.58908]},"properties":{"ID":325,"NOMBRE":"LOS REYES MAGOS","CONTROL":333,"Geometry1_":"1=X<X=@8Zu=f","GMRotation":-0.000022}},
{"type":"Feature","geometry":{"type":"Point","coordinates":[-102.47356,19.58511]},"properties":{"ID":326,"NOMBRE":"DEL CARMEN","CONTROL":334,"Geometry1_":"1=X<X=@UdY:p","GMRotation":-0.000022}},
{"type":"Feature","geometry":{"type":"Point","coordinates":[-102.47583,19.5827]},"properties":{"ID":327,"NOMBRE":"SAGRADO CORAZON DE JESUS","CONTROL":335,"Geometry1_":"1=X<X=@wE?+f","GMRotation":-0.000022}},
{"type":"Feature","geometry":{"type":"Point","coordinates":[-102.4656,19.58642]},"properties":{"ID":328,"NOMBRE":"SAN GABRIEL","CONTROL":336,"Geometry1_":"1=X<X=3R4l+p","GMRotation":-0.000043}},
{"type":"Feature","geometry":{"type":"Point","coordinates":[-102.46896,19.58255]},"properties":{"ID":329,"NOMBRE":"EMMANUEL","CONTROL":337,"Geometry1_":"1=X<X=3ot.l-","GMRotation":-0.000022}},
{"type":"Feature","geometry":{"type":"Point","coordinates":[-102.47041,19.58121]},"properties":{"ID":330,"NOMBRE":"NUESTRA SEÑORA DEL ROSARIO","CONTROL":338,"Geometry1_":"1=X<X=A*r{i>","GMRotation":-0.000049}},
{"type":"Feature","geometry":{"type":"Point","coordinates":[-102.46309,19.58069]},"properties":{"ID":331,"NOMBRE":"DE SAN JOSE","CONTROL":339,"Geometry1_":"1=X<X=A96Lwp","GMRotation":-0.000022}},
{"type":"Feature","geometry":{"type":"Point","coordinates":[-102.45851,19.58414]},"properties":{"ID":332,"NOMBRE":"NUEVA CREACION","CONTROL":340,"Geometry1_":"1=X<X=4O4=)-","GMRotation":-0.000022}},
{"type":"Feature","geometry":{"type":"Point","coordinates":[-102.72345,20.06663]},"properties":{"ID":333,"NOMBRE":"DIVINA PROVIDENCIA","CONTROL":341,"Geometry1_":"1=X<WgL]zLlf","GMRotation":-0.000004}},
{"type":"Feature","geometry":{"type":"Point","coordinates":[-102.71998,20.07057]},"properties":{"ID":334,"NOMBRE":"NUESTRA SEÑORA DE LA ESPERANZA","CONTROL":342,"Geometry1_":"1=X<WghwU6*-","GMRotation":-0.000071}},
{"type":"Feature","geometry":{"type":"Point","coordinates":[-102.7118,20.07152]},"properties":{"ID":335,"NOMBRE":"CRISTIANA","CONTROL":343,"Geometry1_":"1=X<WgjOYQ<>","GMRotation":-0.00004}},
{"type":"Feature","geometry":{"type":"Point","coordinates":[-102.72221,20.06221]},"properties":{"ID":336,"NOMBRE":"SAGRADO CORAZON DE JESUS","CONTROL":344,"Geometry1_":"1=X<WgLny18f","GMRotation":-0.00002}},
{"type":"Feature","geometry":{"type":"Point","coordinates":[-102.71747,20.0599]},"properties":{"ID":337,"NOMBRE":"PERPETUO SOCORRO","CONTROL":345,"Geometry1_":"1=X<WgM6uy^f","GMRotation":-0.000021}},
{"type":"Feature","geometry":{"type":"Point","coordinates":[-102.72771,20.05826]},"properties":{"ID":338,"NOMBRE":"VIRGEN DE GUADALUPE","CONTROL":346,"Geometry1_":"1=X<Wgmd:mb-","GMRotation":-0.000021}},
{"type":"Feature","geometry":{"type":"Point","coordinates":[-102.72184,20.05676]},"properties":{"ID":339,"NOMBRE":"SANTIAGO APOSTOL","CONTROL":347,"Geometry1_":"1=X<WgM=<,A>","GMRotation":-0.00002}},
{"type":"Feature","geometry":{"type":"Point","coordinates":[-102.72208,20.05607]},"properties":{"ID":340,"NOMBRE":"SANTISIMO SACRAMENTO DEL ALTAR","CONTROL":348,"Geometry1_":"1=X<WgM=mOzf","GMRotation":-0.00002}},
{"type":"Feature","geometry":{"type":"Point","coordinates":[-102.723,20.0538]},"properties":{"ID":341,"NOMBRE":"PATRON SANTIAGO","CONTROL":349,"Geometry1_":"1=X<WgMjo]Wf","GMRotation":-0.000021}},
{"type":"Feature","geometry":{"type":"Point","coordinates":[-102.72943,20.05019]},"properties":{"ID":342,"NOMBRE":"SEÑOR DE LOS MILAGROS","CONTROL":350,"Geometry1_":"1=X<WH)1ZoW-","GMRotation":-0.00002}},
{"type":"Feature","geometry":{"type":"Point","coordinates":[-102.71967,20.04727]},"properties":{"ID":343,"NOMBRE":"VISION VIDA","CONTROL":351,"Geometry1_":"1=X<WH*c^ym-","GMRotation":-0.000054}},
{"type":"Feature","geometry":{"type":"Point","coordinates":[-102.71955,20.04196]},"properties":{"ID":344,"NOMBRE":"DEL ESPIRITU SANTO","CONTROL":352,"Geometry1_":"1=X<WH.2*2tp","GMRotation":-0.000021}},
{"type":"Feature","geometry":{"type":"Point","coordinates":[-102.72925,20.04297]},"properties":{"ID":345,"NOMBRE":"SANTA RITA","CONTROL":353,"Geometry1_":"1=X<WH)w93bf","GMRotation":-0.00002}},
{"type":"Feature","geometry":{"type":"Point","coordinates":[-102.71312,20.05197]},"properties":{"ID":346,"NOMBRE":"SAN FELIPE","CONTROL":354,"Geometry1_":"1=X<Wgoocvhp","GMRotation":-0.00002}},
{"type":"Feature","geometry":{"type":"Point","coordinates":[-102.72236,20.07306]},"properties":{"ID":347,"NOMBRE":"SAN RAFAEL","CONTROL":355,"Geometry1_":"1=X<Wghjt1+>","GMRotation":0.000067}},
{"type":"Feature","geometry":{"type":"Point","coordinates":[-102.33157,20.28657]},"properties":{"ID":348,"NOMBRE":"SAGRADO CORAZON","CONTROL":356,"Geometry1_":"1=X<W4nzte8-","GMRotation":-0.00002}},
{"type":"Feature","geometry":{"type":"Point","coordinates":[-102.32735,20.28461]},"properties":{"ID":349,"NOMBRE":"SANTO CRISTO","CONTROL":357,"Geometry1_":"1=X<W4P@@vAp","GMRotation":-0.00002}},
{"type":"Feature","geometry":{"type":"Point","coordinates":[-102.32932,20.28015]},"properties":{"ID":350,"NOMBRE":"SAN ISIDRO","CONTROL":358,"Geometry1_":"1=X<W4Ph6.j>","GMRotation":-0.00002}},
{"type":"Feature","geometry":{"type":"Point","coordinates":[-103.368,18.75875]},"properties":{"ID":351,"NOMBRE":"DE LA ANUNCIACION","CONTROL":359,"Geometry1_":"1=Xi;y3rQth-","GMRotation":0.000029}},
{"type":"Feature","geometry":{"type":"Point","coordinates":[-103.3686,18.75699]},"properties":{"ID":352,"NOMBRE":"CRISTO LA ROCA","CONTROL":360,"Geometry1_":"1=Xi;y3w)S4-","GMRotation":-0.000018}},
{"type":"Feature","geometry":{"type":"Point","coordinates":[-102.8506,20.11931]},"properties":{"ID":353,"NOMBRE":"SAGRADO CORAZON DE JESUS","CONTROL":361,"Geometry1_":"1=X<vt;W1jl>","GMRotation":-0.000037}},
{"type":"Feature","geometry":{"type":"Point","coordinates":[-102.8571,20.11112]},"properties":{"ID":354,"NOMBRE":"VIRGEN DE GUADALUPE","CONTROL":362,"Geometry1_":"1=X<vt?u7Tbp","GMRotation":-0.00002}},
{"type":"Feature","geometry":{"type":"Point","coordinates":[-101.76113,19.98272]},"properties":{"ID":355,"NOMBRE":"PARROQUIA DE SAN ANDRES","CONTROL":363,"Geometry1_":"1=X<YrzBEz=f","GMRotation":-0.000019}},
{"type":"Feature","geometry":{"type":"Point","coordinates":[-101.76245,19.97919]},"properties":{"ID":356,"NOMBRE":"DEL CALVARIO","CONTROL":364,"Geometry1_":"1=X<Yrzrt7bf","GMRotation":-0.000019}},
{"type":"Feature","geometry":{"type":"Point","coordinates":[-102.34501,19.69466]},"properties":{"ID":357,"NOMBRE":"SAN DIEGO","CONTROL":365,"Geometry1_":"1=X<X4hwPLWf","GMRotation":-0.000021}},
{"type":"Feature","geometry":{"type":"Point","coordinates":[-102.3451,19.692]},"properties":{"ID":358,"NOMBRE":"SEÑOR DEL CALVARIO","CONTROL":366,"Geometry1_":"1=X<X4LA{16>","GMRotation":-0.000021}},
{"type":"Feature","geometry":{"type":"Point","coordinates":[-102.34574,19.68901]},"properties":{"ID":359,"NOMBRE":"SEÑOR DEL CALVARIO","CONTROL":367,"Geometry1_":"1=X<X4LJY_7>","GMRotation":-0.000021}},
{"type":"Feature","geometry":{"type":"Point","coordinates":[-100.47737,19.6994]},"properties":{"ID":360,"NOMBRE":"SIN NOMBRE","CONTROL":368,"Geometry1_":"1=X=m8HbmGi>","GMRotation":-0.000012}},
{"type":"Feature","geometry":{"type":"Point","coordinates":[-102.65511,20.11656]},"properties":{"ID":361,"NOMBRE":"SANTA CRUZ","CONTROL":369,"Geometry1_":"1=X<WG,1_g;-","GMRotation":-0.000029}},
{"type":"Feature","geometry":{"type":"Point","coordinates":[-102.65132,20.1158]},"properties":{"ID":362,"NOMBRE":"SAN PEDRO","CONTROL":370,"Geometry1_":"1=X<WG,9:UE-","GMRotation":-0.000063}},
{"type":"Feature","geometry":{"type":"Point","coordinates":[-102.64776,20.11383]},"properties":{"ID":363,"NOMBRE":"PALO DULCE","CONTROL":371,"Geometry1_":"1=X<WG.{O*H-","GMRotation":-0.00002}},
{"type":"Feature","geometry":{"type":"Point","coordinates":[-102.65583,20.11119]},"properties":{"ID":364,"NOMBRE":"VIRGEN DE GUADALUPE","CONTROL":372,"Geometry1_":"1=X<WG,K1)T-","GMRotation":-0.000036}},
{"type":"Feature","geometry":{"type":"Point","coordinates":[-102.64885,20.11494]},"properties":{"ID":365,"NOMBRE":"SEÑOR DE LA MISERICORDIA","CONTROL":373,"Geometry1_":"1=X<WG..Oczf","GMRotation":-0.00002}},
{"type":"Feature","geometry":{"type":"Point","coordinates":[-102.66209,20.11441]},"properties":{"ID":366,"NOMBRE":"NUEVA CREACION","CONTROL":5014,"Geometry1_":"1=X<Wg9d];Wf","GMRotation":-0.000001}},
{"type":"Feature","geometry":{"type":"Point","coordinates":[-102.76209,20.14905]},"properties":{"ID":367,"NOMBRE":"DIVINO ROSTRO","CONTROL":375,"Geometry1_":"1=X<vESguXi>","GMRotation":-0.000058}},
{"type":"Feature","geometry":{"type":"Point","coordinates":[-102.62228,20.14866]},"properties":{"ID":368,"NOMBRE":"NUEVA CREACION","CONTROL":376,"Geometry1_":"1=X<W_rH)Udf","GMRotation":-0.000032}},
{"type":"Feature","geometry":{"type":"Point","coordinates":[-102.06546,20.15189]},"properties":{"ID":369,"NOMBRE":"SANTUARIO VIRGEN DE GUADALUPE","CONTROL":377,"Geometry1_":"1=X<Y^u{BgYp","GMRotation":-0.00002}},
{"type":"Feature","geometry":{"type":"Point","coordinates":[-102.06582,20.15087]},"properties":{"ID":370,"NOMBRE":"VIRGEN DE GUADALUPE","CONTROL":378,"Geometry1_":"1=X<Y^u<?QDp","GMRotation":-0.00002}},
{"type":"Feature","geometry":{"type":"Point","coordinates":[-102.56426,20.11672]},"properties":{"ID":371,"NOMBRE":"NUEVA CREACION","CONTROL":380,"Geometry1_":"1=X<Wi?*A+Pf","GMRotation":-0.000084}},
{"type":"Feature","geometry":{"type":"Point","coordinates":[-102.55666,20.11561]},"properties":{"ID":372,"NOMBRE":"NUEVA CREACION","CONTROL":381,"Geometry1_":"1=X<Wi@,,oLf","GMRotation":0.000043}},
{"type":"Feature","geometry":{"type":"Point","coordinates":[-102.41536,19.51995]},"properties":{"ID":373,"NOMBRE":"SAN JUAN BAUTISTA","CONTROL":382,"Geometry1_":"1=X<XQ:gOwZ>","GMRotation":-0.000022}},
{"type":"Feature","geometry":{"type":"Point","coordinates":[-102.41518,19.52043]},"properties":{"ID":374,"NOMBRE":"DEL SEÑOR DEL HOSPITAL","CONTROL":383,"Geometry1_":"1=X<XQ:gbUQp","GMRotation":-0.000022}},
{"type":"Feature","geometry":{"type":"Point","coordinates":[-102.41814,19.53279]},"properties":{"ID":375,"NOMBRE":"DE DIOS TEMPLO JERIEL","CONTROL":384,"Geometry1_":"1=X<XbM8mbEp","GMRotation":-0.000022}},
{"type":"Feature","geometry":{"type":"Point","coordinates":[-102.41721,19.53359]},"properties":{"ID":376,"NOMBRE":"SANTA CECILIA","CONTROL":385,"Geometry1_":"1=X<XbM88zUp","GMRotation":-0.000022}},
{"type":"Feature","geometry":{"type":"Point","coordinates":[-102.41233,19.52932]},"properties":{"ID":377,"NOMBRE":"SAN JUDAS TADEO","CONTROL":386,"Geometry1_":"1=X<XboJm*up","GMRotation":-0.000022}},
{"type":"Feature","geometry":{"type":"Point","coordinates":[-102.48461,20.15283]},"properties":{"ID":378,"NOMBRE":"NUEVA CREACION","CONTROL":387,"Geometry1_":"1=X<W=j4J@U-","GMRotation":-0.00002}},
{"type":"Feature","geometry":{"type":"Point","coordinates":[-102.54969,20.19479]},"properties":{"ID":379,"NOMBRE":"SAN GREGORIO","CONTROL":388,"Geometry1_":"1=X<W<;Sy8{-","GMRotation":-0.000017}},
{"type":"Feature","geometry":{"type":"Point","coordinates":[-102.051,19.65436]},"properties":{"ID":380,"NOMBRE":"JESUS DE NAZARETH","CONTROL":389,"Geometry1_":"1=X<Z]\\dDRof","GMRotation":-0.000021}},
{"type":"Feature","geometry":{"type":"Point","coordinates":[-102.19033,20.17045]},"properties":{"ID":381,"NOMBRE":"SAN FRANCISCO","CONTROL":390,"Geometry1_":"1=X<WE<\\G6jp","GMRotation":-0.00002}},
{"type":"Feature","geometry":{"type":"Point","coordinates":[-102.19043,20.16146]},"properties":{"ID":382,"NOMBRE":"SAN NICOLASITO DE TOLENTINO","CONTROL":391,"Geometry1_":"1=X<WEi\\.\\O-","GMRotation":-0.00002}},
{"type":"Feature","geometry":{"type":"Point","coordinates":[-102.1951,20.16293]},"properties":{"ID":383,"NOMBRE":"IGLESIA DEL SEÑOR DE LA PAZ","CONTROL":392,"Geometry1_":"1=X<WEG1M]T>","GMRotation":-0.00002}},
{"type":"Feature","geometry":{"type":"Point","coordinates":[-102.17814,20.20933]},"properties":{"ID":384,"NOMBRE":"VIRGEN DE GUADALUPE","CONTROL":393,"Geometry1_":"1=X<WDP?AZZ-","GMRotation":-0.00002}},
{"type":"Feature","geometry":{"type":"Point","coordinates":[-102.04008,19.65694]},"properties":{"ID":385,"NOMBRE":"VIRGEN DE GUADALUPE","CONTROL":394,"Geometry1_":"1=X<Z]{):mzf","GMRotation":-0.000021}},
{"type":"Feature","geometry":{"type":"Point","coordinates":[-102.04417,19.65258]},"properties":{"ID":386,"NOMBRE":"SAN ISIDRO","CONTROL":395,"Geometry1_":"1=X<Z]]bYn)p","GMRotation":-0.000021}},
{"type":"Feature","geometry":{"type":"Point","coordinates":[-102.04219,19.64807]},"properties":{"ID":387,"NOMBRE":"SAN FRANCISCO","CONTROL":396,"Geometry1_":"1=X<Z]]ZKczf","GMRotation":-0.000021}},
{"type":"Feature","geometry":{"type":"Point","coordinates":[-102.04758,19.64717]},"properties":{"ID":388,"NOMBRE":"SAN PEDRO","CONTROL":397,"Geometry1_":"1=X<Z]_*eTZ>","GMRotation":-0.000021}},
{"type":"Feature","geometry":{"type":"Point","coordinates":[-102.05773,19.64366]},"properties":{"ID":389,"NOMBRE":"ROCA DE LA ETERNIDAD","CONTROL":398,"Geometry1_":"1=X<Z]^__t]>","GMRotation":-0.000021}},
{"type":"Feature","geometry":{"type":"Point","coordinates":[-102.05234,19.64428]},"properties":{"ID":390,"NOMBRE":"BAUTISTA BETHEL","CONTROL":399,"Geometry1_":"1=X<Z]^BZAvf","GMRotation":-0.000021}},
{"type":"Feature","geometry":{"type":"Point","coordinates":[-101.70831,20.15027]},"properties":{"ID":391,"NOMBRE":"SAN FRANCISCO DE ASIS","CONTROL":400,"Geometry1_":"1=X<YcS=HH:f","GMRotation":-0.000019}},
{"type":"Feature","geometry":{"type":"Point","coordinates":[-101.70944,20.14829]},"properties":{"ID":392,"NOMBRE":"SANTUARIO DE GUADALUPE","CONTROL":401,"Geometry1_":"1=X<YcSj^?c-","GMRotation":-0.000018}},
{"type":"Feature","geometry":{"type":"Point","coordinates":[-103.02241,19.98675]},"properties":{"ID":393,"NOMBRE":"PERPETUO SOCORRO","CONTROL":402,"Geometry1_":"1=X<vrLP)EL-","GMRotation":0.000005}},
{"type":"Feature","geometry":{"type":"Point","coordinates":[-103.02133,19.98974]},"properties":{"ID":394,"NOMBRE":"SAN JOSE","CONTROL":403,"Geometry1_":"1=X<vrLQg:Lp","GMRotation":-0.00002}},
{"type":"Feature","geometry":{"type":"Point","coordinates":[-101.71565,20.14175]},"properties":{"ID":395,"NOMBRE":"SAN ISIDRO","CONTROL":404,"Geometry1_":"1=X<YcvAXuSf","GMRotation":-0.000019}},
{"type":"Feature","geometry":{"type":"Point","coordinates":[-103.02112,19.99461]},"properties":{"ID":396,"NOMBRE":"SAGRADO CORAZON DE JESUS","CONTROL":405,"Geometry1_":"1=X<vrL1]WP>","GMRotation":-0.00002}},
{"type":"Feature","geometry":{"type":"Point","coordinates":[-101.71502,20.14721]},"properties":{"ID":397,"NOMBRE":"DEL REINO DE LOS TESTIGOS DE JEHOVA","CONTROL":406,"Geometry1_":"1=X<YcrW{i;f","GMRotation":-0.000019}},
{"type":"Feature","geometry":{"type":"Point","coordinates":[-100.89514,18.64406]},"properties":{"ID":398,"NOMBRE":"SEÑOR DEL PERDON","CONTROL":407,"Geometry1_":"1=XJ)mKzDT6f","GMRotation":-0.000017}},
{"type":"Feature","geometry":{"type":"Point","coordinates":[-100.90053,18.63641]},"properties":{"ID":399,"NOMBRE":"VIRGEN DE GUADALUPE","CONTROL":409,"Geometry1_":"1=XJ)mOKOhef","GMRotation":-0.000017}},
{"type":"Feature","geometry":{"type":"Point","coordinates":[-100.898,18.62569]},"properties":{"ID":400,"NOMBRE":"SAN JUAN","CONTROL":410,"Geometry1_":"1=XJ)mPWwO1p","GMRotation":-0.000017}},
{"type":"Feature","geometry":{"type":"Point","coordinates":[-102.04728,19.64135]},"properties":{"ID":401,"NOMBRE":"SAN JUAN","CONTROL":412,"Geometry1_":"1=X<Z]_j_\\Jp","GMRotation":-0.000021}},
{"type":"Feature","geometry":{"type":"Point","coordinates":[-102.04562,19.63949]},"properties":{"ID":402,"NOMBRE":"LA LUZ DEL MUNDO","CONTROL":413,"Geometry1_":"1=X<Z]_P1:2>","GMRotation":-0.000021}},
{"type":"Feature","geometry":{"type":"Point","coordinates":[-102.06037,19.63245]},"properties":{"ID":403,"NOMBRE":"CRISTO DE LA SALUD","CONTROL":414,"Geometry1_":"1=X<Z\\TU76,>","GMRotation":-0.000022}},
{"type":"Feature","geometry":{"type":"Point","coordinates":[-100.29358,20.13561]},"properties":{"ID":404,"NOMBRE":"SAN JOSE BUENAVISTA","CONTROL":415,"Geometry1_":"1=X=L^w)4h7-","GMRotation":-0.00001}},
{"type":"Feature","geometry":{"type":"Point","coordinates":[-100.29341,20.13691]},"properties":{"ID":405,"NOMBRE":"SANTO NIÑO DE ATOCHA","CONTROL":416,"Geometry1_":"1=X=L^vm6jup","GMRotation":-0.00001}},
{"type":"Feature","geometry":{"type":"Point","coordinates":[-102.05527,19.63349]},"properties":{"ID":406,"NOMBRE":"SAGRADO CORAZON","CONTROL":418,"Geometry1_":"1=X<Z]gJ:w;p","GMRotation":-0.000021}},
{"type":"Feature","geometry":{"type":"Point","coordinates":[-100.90802,19.41838]},"properties":{"ID":407,"NOMBRE":"SANTA ROSA DE LIMA","CONTROL":419,"Geometry1_":"1=X=mH<c^_=p","GMRotation":-0.000029}},
{"type":"Feature","geometry":{"type":"Point","coordinates":[-102.12964,19.6592]},"properties":{"ID":408,"NOMBRE":"EVANGELICA PADRE CELESTIAL","CONTROL":420,"Geometry1_":"1=X<Z\\,O9Qlf","GMRotation":-0.000021}},
{"type":"Feature","geometry":{"type":"Point","coordinates":[-102.13047,19.65562]},"properties":{"ID":409,"NOMBRE":"SANTO SANTIAGO","CONTROL":421,"Geometry1_":"1=X<Z\\\\@]66-","GMRotation":-0.000021}},
{"type":"Feature","geometry":{"type":"Point","coordinates":[-102.13111,19.65554]},"properties":{"ID":410,"NOMBRE":"INMACULADA CONCEPCION","CONTROL":422,"Geometry1_":"1=X<Z\\\\?BQh>","GMRotation":-0.000021}},
{"type":"Feature","geometry":{"type":"Point","coordinates":[-102.69435,19.80256]},"properties":{"ID":411,"NOMBRE":"VIRGEN DE GUADALUPE","CONTROL":423,"Geometry1_":"1=X<X)Ai23o-","GMRotation":-0.000021}},
{"type":"Feature","geometry":{"type":"Point","coordinates":[-102.70206,19.80551]},"properties":{"ID":412,"NOMBRE":"SAN FELIPE","CONTROL":424,"Geometry1_":"1=X<X)+3g98>","GMRotation":-0.000011}},
{"type":"Feature","geometry":{"type":"Point","coordinates":[-102.70153,19.80655]},"properties":{"ID":413,"NOMBRE":"SANTISIMO SACRAMENTO","CONTROL":425,"Geometry1_":"1=X<X)+1r1=f","GMRotation":-0.000005}},
{"type":"Feature","geometry":{"type":"Point","coordinates":[-102.69956,19.80921]},"properties":{"ID":414,"NOMBRE":"SAN JOSE","CONTROL":426,"Geometry1_":"1=X<X)@Y]zep","GMRotation":-0.000021}},
{"type":"Feature","geometry":{"type":"Point","coordinates":[-102.70425,19.81016]},"properties":{"ID":415,"NOMBRE":"LA INMACULADA","CONTROL":427,"Geometry1_":"1=X<X)@ji^Jf","GMRotation":0.000001}},
{"type":"Feature","geometry":{"type":"Point","coordinates":[-102.70812,19.81141]},"properties":{"ID":416,"NOMBRE":"VIRGEN DE LA ASUNCION","CONTROL":428,"Geometry1_":"1=X<X)?tEX*>","GMRotation":-0.00006}},
{"type":"Feature","geometry":{"type":"Point","coordinates":[-102.43221,20.13495]},"properties":{"ID":417,"NOMBRE":"SAGRADO CORAZON DE JESUS","CONTROL":429,"Geometry1_":"1=X<Wbm:l2Xf","GMRotation":-0.00002}},
{"type":"Feature","geometry":{"type":"Point","coordinates":[-100.17817,19.95516]},"properties":{"ID":418,"NOMBRE":"SANTIAGO APOSTOL","CONTROL":430,"Geometry1_":"1=X=Ln\\@mlS-","GMRotation":-0.000009}},
{"type":"Feature","geometry":{"type":"Point","coordinates":[-100.23114,19.91341]},"properties":{"ID":419,"NOMBRE":"EL RETORNO","CONTROL":431,"Geometry1_":"1=X=LLnStEof","GMRotation":2.055185}},
{"type":"Feature","geometry":{"type":"Point","coordinates":[-100.92601,19.58611]},"properties":{"ID":420,"NOMBRE":"SIN NOMBRE","CONTROL":432,"Geometry1_":"1=X=m^,Rcw,f","GMRotation":0}},
{"type":"Feature","geometry":{"type":"Point","coordinates":[-102.40877,20.2643]},"properties":{"ID":421,"NOMBRE":"VIRGEN DEL REFUGIO","CONTROL":433,"Geometry1_":"1=X<WA?dg@Up","GMRotation":-0.00002}},
{"type":"Feature","geometry":{"type":"Point","coordinates":[-102.39422,20.1686]},"properties":{"ID":422,"NOMBRE":"SAN FRANCISCO DE ASIS","CONTROL":434,"Geometry1_":"1=X<Wbbi;SQ-","GMRotation":-0.00002}},
{"type":"Feature","geometry":{"type":"Point","coordinates":[-102.3914,20.16783]},"properties":{"ID":423,"NOMBRE":"SAGRADO CORAZON","CONTROL":435,"Geometry1_":"1=X<WbbQUz+-","GMRotation":-0.00002}},
{"type":"Feature","geometry":{"type":"Point","coordinates":[-102.39853,20.17166]},"properties":{"ID":424,"NOMBRE":"SAGRADO CORAZON DE JESUS","CONTROL":437,"Geometry1_":"1=X<Wb=8enb>","GMRotation":-0.00002}},
{"type":"Feature","geometry":{"type":"Point","coordinates":[-102.55655,19.94749]},"properties":{"ID":425,"NOMBRE":"NUEVA CREACION","CONTROL":438,"Geometry1_":"1=X<Wn=)g7z-","GMRotation":-0.000117}},
{"type":"Feature","geometry":{"type":"Point","coordinates":[-102.59398,19.93708]},"properties":{"ID":426,"NOMBRE":"VIRGEN DE GUADALUPE","CONTROL":439,"Geometry1_":"1=X<WLT,_8*p","GMRotation":-0.000042}},
{"type":"Feature","geometry":{"type":"Point","coordinates":[-102.6157,19.99541]},"properties":{"ID":427,"NOMBRE":"SEÑOR DEL PERDON","CONTROL":440,"Geometry1_":"1=X<WhrXScdp","GMRotation":-0.000021}},
{"type":"Feature","geometry":{"type":"Point","coordinates":[-102.61383,19.99225]},"properties":{"ID":428,"NOMBRE":"NUEVA CREACION","CONTROL":441,"Geometry1_":"1=X<WhvD{PXp","GMRotation":-0.000021}},
{"type":"Feature","geometry":{"type":"Point","coordinates":[-102.59613,20.02008]},"properties":{"ID":429,"NOMBRE":"MIGUEL ARCANGEL","CONTROL":442,"Geometry1_":"1=X<WhedK\\9f","GMRotation":-0.000048}},
{"type":"Feature","geometry":{"type":"Point","coordinates":[-101.58663,20.31123]},"properties":{"ID":430,"NOMBRE":"SIN NOMBRE","CONTROL":443,"Geometry1_":"1=X<Y9i{R3Xp","GMRotation":-0.000018}},
{"type":"Feature","geometry":{"type":"Point","coordinates":[-101.59515,20.30229]},"properties":{"ID":431,"NOMBRE":"VIRGEN DE LA CONCEPCION","CONTROL":444,"Geometry1_":"1=X<Y9h+@3Mp","GMRotation":-0.000018}},
{"type":"Feature","geometry":{"type":"Point","coordinates":[-101.9969,19.89753]},"properties":{"ID":432,"NOMBRE":"VIRGEN DE FATIMA","CONTROL":445,"Geometry1_":"1=X<YM6c)O9>","GMRotation":-0.00002}},
{"type":"Feature","geometry":{"type":"Point","coordinates":[-101.99846,19.90437]},"properties":{"ID":433,"NOMBRE":"VIRGEN DE GUADALUPE","CONTROL":446,"Geometry1_":"1=X<YLZKB6zp","GMRotation":-0.00002}},
{"type":"Feature","geometry":{"type":"Point","coordinates":[-102.00563,19.90934]},"properties":{"ID":434,"NOMBRE":"INMACULADA CONCEPCION","CONTROL":447,"Geometry1_":"1=X<YLX41D9>","GMRotation":-0.00002}},
{"type":"Feature","geometry":{"type":"Point","coordinates":[-101.85882,19.50959]},"properties":{"ID":435,"NOMBRE":"SAN JUDAS","CONTROL":448,"Geometry1_":"1=X<ZJ4jSu.f","GMRotation":-0.000021}},
{"type":"Feature","geometry":{"type":"Point","coordinates":[-101.85638,19.506]},"properties":{"ID":436,"NOMBRE":"CRISTIANA APOSTOLICA PENTECOSTES","CONTROL":449,"Geometry1_":"1=X<ZJB1Y1O-","GMRotation":-0.00002}},
{"type":"Feature","geometry":{"type":"Point","coordinates":[-101.85436,19.50477]},"properties":{"ID":437,"NOMBRE":"SAN ISIDRO","CONTROL":450,"Geometry1_":"1=X<ZJB8v<h>","GMRotation":-0.000021}},
{"type":"Feature","geometry":{"type":"Point","coordinates":[-101.85122,19.50277]},"properties":{"ID":438,"NOMBRE":"SAN ANTONIO","CONTROL":451,"Geometry1_":"1=X<ZJd_G2y>","GMRotation":-0.00002}},
{"type":"Feature","geometry":{"type":"Point","coordinates":[-101.85374,19.50179]},"properties":{"ID":439,"NOMBRE":"SANTIAGO APOSTOL","CONTROL":452,"Geometry1_":"1=X<ZJBT\\v<p","GMRotation":-0.000021}},
{"type":"Feature","geometry":{"type":"Point","coordinates":[-101.85264,19.4983]},"properties":{"ID":440,"NOMBRE":"VIRGEN DE GUADALUPE","CONTROL":453,"Geometry1_":"1=X<ZJdm\\gH>","GMRotation":-0.00002}},
{"type":"Feature","geometry":{"type":"Point","coordinates":[-101.85541,19.5006]},"properties":{"ID":441,"NOMBRE":"SAN JOSE","CONTROL":454,"Geometry1_":"1=X<ZJBSBM\\p","GMRotation":-0.000021}},
{"type":"Feature","geometry":{"type":"Point","coordinates":[-102.29051,20.32832]},"properties":{"ID":442,"NOMBRE":"LA ESPERANZA","CONTROL":455,"Geometry1_":"1=X<W4D<ZY\\>","GMRotation":-0.00002}},
{"type":"Feature","geometry":{"type":"Point","coordinates":[-102.2798,20.32931]},"properties":{"ID":443,"NOMBRE":"LA ESPERANZA","CONTROL":456,"Geometry1_":"1=X<W8\\=963f","GMRotation":-0.00002}},
{"type":"Feature","geometry":{"type":"Point","coordinates":[-102.28254,20.34204]},"properties":{"ID":444,"NOMBRE":"LA PURISIMA","CONTROL":457,"Geometry1_":"1=X<W8,*B,Wf","GMRotation":-0.000019}},
{"type":"Feature","geometry":{"type":"Point","coordinates":[-102.27871,20.33672]},"properties":{"ID":445,"NOMBRE":"DEL ROSARIO","CONTROL":458,"Geometry1_":"1=X<W8,QyG6f","GMRotation":-0.000019}},
{"type":"Feature","geometry":{"type":"Point","coordinates":[-102.28886,20.33692]},"properties":{"ID":446,"NOMBRE":"VIRGEN DE GUADALUPE","CONTROL":459,"Geometry1_":"1=X<W49Qj,\\-","GMRotation":-0.00002}},
{"type":"Feature","geometry":{"type":"Point","coordinates":[-102.28482,20.33368]},"properties":{"ID":447,"NOMBRE":"CRISTO REY","CONTROL":460,"Geometry1_":"1=X<W49zcA*>","GMRotation":-0.00002}},
{"type":"Feature","geometry":{"type":"Point","coordinates":[-102.29184,20.33285]},"properties":{"ID":448,"NOMBRE":"SAN JOSE","CONTROL":461,"Geometry1_":"1=X<W4D*2X{p","GMRotation":-0.00002}},
{"type":"Feature","geometry":{"type":"Point","coordinates":[-102.27219,20.33411]},"properties":{"ID":449,"NOMBRE":"SAN JOSE","CONTROL":462,"Geometry1_":"1=X<W8.o;B<p","GMRotation":-0.00002}},
{"type":"Feature","geometry":{"type":"Point","coordinates":[-102.56145,20.27119]},"properties":{"ID":450,"NOMBRE":"NUESTRA SEÑORA DEL REFUGIO","CONTROL":463,"Geometry1_":"1=X<W{:Ju3Wf","GMRotation":-0.000032}},
{"type":"Feature","geometry":{"type":"Point","coordinates":[-102.56172,20.27416]},"properties":{"ID":451,"NOMBRE":"SEÑOR DE LA AGONIA","CONTROL":464,"Geometry1_":"1=X<W{:+2XXp","GMRotation":-0.00002}},
{"type":"Feature","geometry":{"type":"Point","coordinates":[-101.81011,19.57608]},"properties":{"ID":452,"NOMBRE":"SAN MIGUEL","CONTROL":465,"Geometry1_":"1=X<Zb{r*DT>","GMRotation":-0.00002}},
{"type":"Feature","geometry":{"type":"Point","coordinates":[-101.80687,19.57529]},"properties":{"ID":453,"NOMBRE":"SAN BARTOLO 1","CONTROL":466,"Geometry1_":"1=X<Zb{uHHrf","GMRotation":-0.00002}},
{"type":"Feature","geometry":{"type":"Point","coordinates":[-101.80538,19.57333]},"properties":{"ID":454,"NOMBRE":"SAN BARTOLO 2","CONTROL":467,"Geometry1_":"1=X<Zb+m<*t-","GMRotation":-0.000021}},
{"type":"Feature","geometry":{"type":"Point","coordinates":[-101.80924,19.57323]},"properties":{"ID":455,"NOMBRE":"SAN FRANCISCO","CONTROL":468,"Geometry1_":"1=X<Zb{wEy?-","GMRotation":-0.00002}},
{"type":"Feature","geometry":{"type":"Point","coordinates":[-101.80654,19.57163]},"properties":{"ID":456,"NOMBRE":"SAN FRANCISCO DE ASIS","CONTROL":469,"Geometry1_":"1=X<Zb<7njep","GMRotation":-0.00002}},
{"type":"Feature","geometry":{"type":"Point","coordinates":[-101.80447,19.57004]},"properties":{"ID":457,"NOMBRE":"SANTO TOMAS","CONTROL":470,"Geometry1_":"1=X<Zb=],=of","GMRotation":-0.00002}},
{"type":"Feature","geometry":{"type":"Point","coordinates":[-102.05039,19.16488]},"properties":{"ID":458,"NOMBRE":"TEMPLO EVANGELICO SINAI","CONTROL":471,"Geometry1_":"1=Xi6*lE=UOp","GMRotation":-0.000022}},
{"type":"Feature","geometry":{"type":"Point","coordinates":[-102.05312,19.16458]},"properties":{"ID":459,"NOMBRE":"CONFERENCIA GRAL DE LA IGLESIA DE DIOS","CONTROL":472,"Geometry1_":"1=Xi6*lchn\\f","GMRotation":-0.000022}},
{"type":"Feature","geometry":{"type":"Point","coordinates":[-102.03694,19.15877]},"properties":{"ID":460,"NOMBRE":"SEÑOR DE LOS MILAGROS","CONTROL":473,"Geometry1_":"1=Xi6*o:ub:>","GMRotation":-0.000022}},
{"type":"Feature","geometry":{"type":"Point","coordinates":[-102.0478,19.15747]},"properties":{"ID":461,"NOMBRE":"TEMPLO EVANGELICO BETHEL","CONTROL":474,"Geometry1_":"1=Xi6*M.WA)p","GMRotation":-0.000022}},
{"type":"Feature","geometry":{"type":"Point","coordinates":[-102.04781,19.1512]},"properties":{"ID":462,"NOMBRE":"CAPILLA DE LA INMACULADA CONCEPCION","CONTROL":475,"Geometry1_":"1=Xi6*MM4;A-","GMRotation":-0.000022}},
{"type":"Feature","geometry":{"type":"Point","coordinates":[-102.05713,19.15992]},"properties":{"ID":463,"NOMBRE":"PARROQUIA DEL SAGRADO CORAZON","CONTROL":476,"Geometry1_":"1=Xi6*lMSTg-","GMRotation":-0.000022}},
{"type":"Feature","geometry":{"type":"Point","coordinates":[-102.47095,20.27743]},"properties":{"ID":464,"NOMBRE":"SEÑORA DEL REFUGIO","CONTROL":477,"Geometry1_":"1=X<W@wM\\rX-","GMRotation":0.000008}},
{"type":"Feature","geometry":{"type":"Point","coordinates":[-102.47458,20.27267]},"properties":{"ID":465,"NOMBRE":"SEÑORA DE GUADALUPE","CONTROL":478,"Geometry1_":"1=X<W+;cE89f","GMRotation":-0.000008}},
{"type":"Feature","geometry":{"type":"Point","coordinates":[-102.47764,20.26738]},"properties":{"ID":466,"NOMBRE":"VIRGEN DE GUADALUPE","CONTROL":479,"Geometry1_":"1=X<W+;Po9wp","GMRotation":-0.000008}},
{"type":"Feature","geometry":{"type":"Point","coordinates":[-102.47009,20.26542]},"properties":{"ID":467,"NOMBRE":"VIRGEN DE GUADALUPE","CONTROL":480,"Geometry1_":"1=X<W+3.tJJf","GMRotation":-0.000016}},
{"type":"Feature","geometry":{"type":"Point","coordinates":[-102.47324,20.27293]},"properties":{"ID":468,"NOMBRE":"VIRGEN MARIA","CONTROL":481,"Geometry1_":"1=X<W+;E,E3p","GMRotation":-0.000007}},
{"type":"Feature","geometry":{"type":"Point","coordinates":[-102.49202,20.22663]},"properties":{"ID":469,"NOMBRE":"VIRGEN DE LA CONCEPCION","CONTROL":482,"Geometry1_":"1=X<W+hDH7cf","GMRotation":0.000023}},
{"type":"Feature","geometry":{"type":"Point","coordinates":[-103.1687,18.79165]},"properties":{"ID":470,"NOMBRE":"SAGRADO CORAZON DE JESUS","CONTROL":483,"Geometry1_":"1=Xi1jL8JAj>","GMRotation":-0.000024}},
{"type":"Feature","geometry":{"type":"Point","coordinates":[-102.01564,19.12128]},"properties":{"ID":471,"NOMBRE":"DE GUADALUPE","CONTROL":484,"Geometry1_":"1=Xi6.b2H26>","GMRotation":-0.000022}},
{"type":"Feature","geometry":{"type":"Point","coordinates":[-103.1689,18.77345]},"properties":{"ID":472,"NOMBRE":"EVANGELICA LA LUZ DEL MUNDO","CONTROL":485,"Geometry1_":"1=Xi1n*8:_@f","GMRotation":-0.000024}},
{"type":"Feature","geometry":{"type":"Point","coordinates":[-102.44195,20.19503]},"properties":{"ID":473,"NOMBRE":"SAN JOSE","CONTROL":486,"Geometry1_":"1=X<W=7ht<o>","GMRotation":-0.00002}},
{"type":"Feature","geometry":{"type":"Point","coordinates":[-101.62119,20.216]},"properties":{"ID":474,"NOMBRE":"DE SAN JOSE","CONTROL":487,"Geometry1_":"1=X<YdYcjgG-","GMRotation":-0.000018}},
{"type":"Feature","geometry":{"type":"Point","coordinates":[-101.90998,19.41612]},"properties":{"ID":475,"NOMBRE":"SAN ANDRES APOSTOL","CONTROL":488,"Geometry1_":"1=X<ZjEu]lSp","GMRotation":-0.000021}},
{"type":"Feature","geometry":{"type":"Point","coordinates":[-101.90976,19.41837]},"properties":{"ID":476,"NOMBRE":"CASA DE ORACION","CONTROL":489,"Geometry1_":"1=X<ZjEE<QD-","GMRotation":-0.000021}},
{"type":"Feature","geometry":{"type":"Point","coordinates":[-102.62399,20.2308]},"properties":{"ID":477,"NOMBRE":"SEÑORA DE GUADALUPE","CONTROL":490,"Geometry1_":"1=X<W]JZ2GX>","GMRotation":-0.00002}},
{"type":"Feature","geometry":{"type":"Point","coordinates":[-101.4696,20.27906]},"properties":{"ID":478,"NOMBRE":"SAN JOSE","CONTROL":491,"Geometry1_":"1=X<y,ZUPK1p","GMRotation":-0.000017}},
{"type":"Feature","geometry":{"type":"Point","coordinates":[-101.47144,20.27451]},"properties":{"ID":479,"NOMBRE":"DE LA VIRGEN DE GUADALUPE","CONTROL":492,"Geometry1_":"1=X<y\\63Yu4-","GMRotation":-0.000018}},
{"type":"Feature","geometry":{"type":"Point","coordinates":[-101.88923,19.44877]},"properties":{"ID":480,"NOMBRE":"SAN MIGUEL ARCANGEL","CONTROL":493,"Geometry1_":"1=X<ZK:,tA1>","GMRotation":-0.000021}},
{"type":"Feature","geometry":{"type":"Point","coordinates":[-101.74884,19.88003]},"properties":{"ID":481,"NOMBRE":"DE GUADALUPE","CONTROL":494,"Geometry1_":"1=X<YX]\\;2S>","GMRotation":-0.000019}},
{"type":"Feature","geometry":{"type":"Point","coordinates":[-101.7723,19.84121]},"properties":{"ID":482,"NOMBRE":"WENCESLAO VICTORIA","CONTROL":495,"Geometry1_":"1=X<YwYb;Sy>","GMRotation":-0.00002}},
{"type":"Feature","geometry":{"type":"Point","coordinates":[-101.77111,19.84099]},"properties":{"ID":483,"NOMBRE":"EVANGELICA","CONTROL":496,"Geometry1_":"1=X<YwYc+9gp","GMRotation":-0.00002}},
{"type":"Feature","geometry":{"type":"Point","coordinates":[-101.76891,19.83427]},"properties":{"ID":484,"NOMBRE":"DE GUADALUPE","CONTROL":498,"Geometry1_":"1=X<YwZ9:7.-","GMRotation":-0.00002}},
{"type":"Feature","geometry":{"type":"Point","coordinates":[-101.77922,19.83193]},"properties":{"ID":485,"NOMBRE":"SAGRADO CORAZON DE JESUS","CONTROL":499,"Geometry1_":"1=X<YwXe116p","GMRotation":-0.00002}},
{"type":"Feature","geometry":{"type":"Point","coordinates":[-102.08698,19.04272]},"properties":{"ID":486,"NOMBRE":"SAN JOSE OBRERO","CONTROL":500,"Geometry1_":"1=Xi6\\c^iiu>","GMRotation":-0.000023}},
{"type":"Feature","geometry":{"type":"Point","coordinates":[-101.78456,19.83133]},"properties":{"ID":487,"NOMBRE":"DE DOLORES","CONTROL":501,"Geometry1_":"1=X<YwX<g*nf","GMRotation":-0.00002}},
{"type":"Feature","geometry":{"type":"Point","coordinates":[-101.7905,19.82582]},"properties":{"ID":488,"NOMBRE":"SEÑORA DE FATIMA","CONTROL":502,"Geometry1_":"1=X<Z1119S3>","GMRotation":-0.000019}},
{"type":"Feature","geometry":{"type":"Point","coordinates":[-102.07998,19.03635]},"properties":{"ID":489,"NOMBRE":"SAN FRANCISCO DE ASIS","CONTROL":503,"Geometry1_":"1=Xi6\\R6omZp","GMRotation":-0.000023}},
{"type":"Feature","geometry":{"type":"Point","coordinates":[-102.08389,19.0326]},"properties":{"ID":490,"NOMBRE":"EVANGELICO SIN NOMBRE","CONTROL":504,"Geometry1_":"1=Xi6\\Ri9JJf","GMRotation":-0.000023}},
{"type":"Feature","geometry":{"type":"Point","coordinates":[-101.79201,19.82634]},"properties":{"ID":491,"NOMBRE":"EL SILOE","CONTROL":505,"Geometry1_":"1=X<YwwPW;jp","GMRotation":-0.00002}},
{"type":"Feature","geometry":{"type":"Point","coordinates":[-102.07916,19.0294]},"properties":{"ID":492,"NOMBRE":"DE LA SANTA CRUZ","CONTROL":506,"Geometry1_":"1=Xi6\\RYzc2-","GMRotation":-0.000023}},
{"type":"Feature","geometry":{"type":"Point","coordinates":[-102.08099,19.02765]},"properties":{"ID":493,"NOMBRE":"ADVENTISTA DEL SEPTIMO DIA","CONTROL":507,"Geometry1_":"1=Xi6\\S2=]w-","GMRotation":-0.000023}},
{"type":"Feature","geometry":{"type":"Point","coordinates":[-102.08766,19.02481]},"properties":{"ID":494,"NOMBRE":"EVANGELISTA","CONTROL":508,"Geometry1_":"1=Xi6\\rDWSS-","GMRotation":-0.000023}},
{"type":"Feature","geometry":{"type":"Point","coordinates":[-102.0841,19.03009]},"properties":{"ID":495,"NOMBRE":"EVANGELISTA","CONTROL":510,"Geometry1_":"1=Xi6\\RnBuY-","GMRotation":-0.000023}},
{"type":"Feature","geometry":{"type":"Point","coordinates":[-102.08818,19.02979]},"properties":{"ID":496,"NOMBRE":"PARROQUIA DE NUESTRA SEÑORA DE GUADALUPE","CONTROL":511,"Geometry1_":"1=Xi6\\Qyihop","GMRotation":-0.000023}},
{"type":"Feature","geometry":{"type":"Point","coordinates":[-102.08861,19.03091]},